"zip","lat","lng","city","state_id","state_name","zcta","parent_zcta","population","density","county_fips","county_name","county_weights","county_names_all","county_fips_all","imprecise","military","timezone"
"00601","18.18027","-66.75266","Adjuntas","PR","Puerto Rico","TRUE","","16773","100.5","72001","Adjuntas","{""72001"": 98.73, ""72141"": 1.27}","Adjuntas|Utuado","72001|72141","FALSE","FALSE","America/Puerto_Rico"
"00602","18.36075","-67.17541","Aguada","PR","Puerto Rico","TRUE","","37083","472.1","72003","Aguada","{""72003"": 100}","Aguada","72003","FALSE","FALSE","America/Puerto_Rico"
"00603","18.45744","-67.12225","Aguadilla","PR","Puerto Rico","TRUE","","45652","513.2","72005","Aguadilla","{""72005"": 99.76, ""72099"": 0.24}","Aguadilla|Moca","72005|72099","FALSE","FALSE","America/Puerto_Rico"
"00606","18.16585","-66.93716","Maricao","PR","Puerto Rico","TRUE","","6231","54.3","72093","Maricao","{""72093"": 82.26, ""72153"": 11.68, ""72121"": 6.06}","Maricao|Yauco|Sabana Grande","72093|72153|72121","FALSE","FALSE","America/Puerto_Rico"
"00610","18.2911","-67.12243","Anasco","PR","Puerto Rico","TRUE","","26502","275.7","72011","Añasco","{""72011"": 96.71, ""72099"": 2.81, ""72083"": 0.37, ""72003"": 0.11}","Añasco|Moca|Las Marías|Aguada","72011|72099|72083|72003","FALSE","FALSE","America/Puerto_Rico"
"00611","18.27698","-66.80688","Angeles","PR","Puerto Rico","TRUE","","","","72141","Utuado","{""72141"": 100}","Utuado","72141","FALSE","FALSE","America/Puerto_Rico"
"00612","18.41283","-66.7051","Arecibo","PR","Puerto Rico","TRUE","","58771","298.0","72013","Arecibo","{""72013"": 98.86, ""72065"": 0.94, ""72017"": 0.2}","Arecibo|Hatillo|Barceloneta","72013|72065|72017","FALSE","FALSE","America/Puerto_Rico"
"00616","18.41878","-66.6679","Bajadero","PR","Puerto Rico","TRUE","","9688","343.7","72013","Arecibo","{""72013"": 100}","Arecibo","72013","FALSE","FALSE","America/Puerto_Rico"
"00617","18.44598","-66.56006","Barceloneta","PR","Puerto Rico","TRUE","","23771","500.0","72017","Barceloneta","{""72017"": 99.63, ""72054"": 0.37}","Barceloneta|Florida","72017|72054","FALSE","FALSE","America/Puerto_Rico"
"00622","17.98892","-67.1566","Boqueron","PR","Puerto Rico","TRUE","","6505","80.6","72023","Cabo Rojo","{""72023"": 100}","Cabo Rojo","72023","FALSE","FALSE","America/Puerto_Rico"
"00623","18.08429","-67.15336","Cabo Rojo","PR","Puerto Rico","TRUE","","41472","408.5","72023","Cabo Rojo","{""72023"": 100}","Cabo Rojo","72023","FALSE","FALSE","America/Puerto_Rico"
"00624","18.05905","-66.71932","Penuelas","PR","Puerto Rico","TRUE","","21031","172.9","72111","Peñuelas","{""72111"": 94.96, ""72113"": 5.04}","Peñuelas|Ponce","72111|72113","FALSE","FALSE","America/Puerto_Rico"
"00627","18.41905","-66.86037","Camuy","PR","Puerto Rico","TRUE","","31066","258.7","72027","Camuy","{""72027"": 100}","Camuy","72027","FALSE","FALSE","America/Puerto_Rico"
"00631","18.1852","-66.83169","Castaner","PR","Puerto Rico","TRUE","","1481","182.9","72081","Lares","{""72081"": 50.58, ""72001"": 49.42}","Lares|Adjuntas","72081|72001","FALSE","FALSE","America/Puerto_Rico"
"00636","18.16354","-67.08014","Rosario","PR","Puerto Rico","TRUE","","","","72125","San Germán","{""72125"": 100}","San Germán","72125","FALSE","FALSE","America/Puerto_Rico"
"00637","18.081","-66.94659","Sabana Grande","PR","Puerto Rico","TRUE","","21957","241.0","72121","Sabana Grande","{""72121"": 94.01, ""72125"": 4.2, ""72079"": 1.79}","Sabana Grande|San Germán|Lajas","72121|72125|72079","FALSE","FALSE","America/Puerto_Rico"
"00638","18.28462","-66.5137","Ciales","PR","Puerto Rico","TRUE","","16018","86.6","72039","Ciales","{""72039"": 91.88, ""72107"": 7.48, ""72091"": 0.64}","Ciales|Orocovis|Manatí","72039|72107|72091","FALSE","FALSE","America/Puerto_Rico"
"00641","18.26742","-66.70212","Utuado","PR","Puerto Rico","TRUE","","26383","121.1","72141","Utuado","{""72141"": 100}","Utuado","72141","FALSE","FALSE","America/Puerto_Rico"
"00646","18.43251","-66.28429","Dorado","PR","Puerto Rico","TRUE","","36538","670.1","72051","Dorado","{""72051"": 97.19, ""72143"": 2.81}","Dorado|Vega Alta","72051|72143","FALSE","FALSE","America/Puerto_Rico"
"00647","17.96667","-66.94266","Ensenada","PR","Puerto Rico","TRUE","","5708","139.4","72055","Guánica","{""72055"": 98.36, ""72079"": 1.64}","Guánica|Lajas","72055|72079","FALSE","FALSE","America/Puerto_Rico"
"00650","18.34487","-66.58347","Florida","PR","Puerto Rico","TRUE","","13869","168.8","72054","Florida","{""72054"": 47.43, ""72141"": 41.94, ""72091"": 4.26, ""72039"": 2.9, ""72013"": 2.41, ""72017"": 1.07}","Florida|Utuado|Manatí|Ciales|Arecibo|Barceloneta","72054|72141|72091|72039|72013|72017","FALSE","FALSE","America/Puerto_Rico"
"00652","18.45614","-66.60194","Garrochales","PR","Puerto Rico","TRUE","","3624","217.2","72013","Arecibo","{""72013"": 100}","Arecibo","72013","FALSE","FALSE","America/Puerto_Rico"
"00653","17.99413","-66.90266","Guanica","PR","Puerto Rico","TRUE","","10117","176.9","72055","Guánica","{""72055"": 97.54, ""72121"": 2.46}","Guánica|Sabana Grande","72055|72121","FALSE","FALSE","America/Puerto_Rico"
"00656","18.04186","-66.79123","Guayanilla","PR","Puerto Rico","TRUE","","17984","164.8","72059","Guayanilla","{""72059"": 96.96, ""72153"": 2.88, ""72111"": 0.16}","Guayanilla|Yauco|Peñuelas","72059|72153|72111","FALSE","FALSE","America/Puerto_Rico"
"00659","18.41036","-66.79691","Hatillo","PR","Puerto Rico","TRUE","","39561","372.0","72065","Hatillo","{""72065"": 100}","Hatillo","72065","FALSE","FALSE","America/Puerto_Rico"
"00660","18.13412","-67.11399","Hormigueros","PR","Puerto Rico","TRUE","","15731","536.6","72067","Hormigueros","{""72067"": 100}","Hormigueros","72067","FALSE","FALSE","America/Puerto_Rico"
"00662","18.46622","-67.01508","Isabela","PR","Puerto Rico","TRUE","","39017","365.0","72071","Isabela","{""72071"": 100}","Isabela","72071","FALSE","FALSE","America/Puerto_Rico"
"00664","18.21064","-66.59066","Jayuya","PR","Puerto Rico","TRUE","","14405","118.6","72073","Jayuya","{""72073"": 94.97, ""72141"": 5.03}","Jayuya|Utuado","72073|72141","FALSE","FALSE","America/Puerto_Rico"
"00667","18.01246","-67.0417","Lajas","PR","Puerto Rico","TRUE","","22721","145.7","72079","Lajas","{""72079"": 98.09, ""72125"": 1.91}","Lajas|San Germán","72079|72125","FALSE","FALSE","America/Puerto_Rico"
"00669","18.27019","-66.86727","Lares","PR","Puerto Rico","TRUE","","24022","144.7","72081","Lares","{""72081"": 93.38, ""72141"": 3.8, ""72083"": 2.7, ""72131"": 0.12}","Lares|Utuado|Las Marías|San Sebastián","72081|72141|72083|72131","FALSE","FALSE","America/Puerto_Rico"
"00670","18.23782","-66.98852","Las Marias","PR","Puerto Rico","TRUE","","8051","66.8","72083","Las Marías","{""72083"": 95.63, ""72011"": 3.6, ""72097"": 0.45, ""72093"": 0.32}","Las Marías|Añasco|Mayagüez|Maricao","72083|72011|72097|72093","FALSE","FALSE","America/Puerto_Rico"
"00674","18.42229","-66.4891","Manati","PR","Puerto Rico","TRUE","","38218","339.6","72091","Manatí","{""72091"": 99.45, ""72145"": 0.55}","Manatí|Vega Baja","72091|72145","FALSE","FALSE","America/Puerto_Rico"
"00676","18.37897","-67.08098","Moca","PR","Puerto Rico","TRUE","","35621","281.5","72099","Moca","{""72099"": 99.19, ""72003"": 0.81}","Moca|Aguada","72099|72003","FALSE","FALSE","America/Puerto_Rico"
"00677","18.33535","-67.23155","Rincon","PR","Puerto Rico","TRUE","","13949","369.7","72117","Rincón","{""72117"": 98.0, ""72011"": 1.19, ""72003"": 0.81}","Rincón|Añasco|Aguada","72117|72011|72003","FALSE","FALSE","America/Puerto_Rico"
"00678","18.42949","-66.93016","Quebradillas","PR","Puerto Rico","TRUE","","24997","331.2","72115","Quebradillas","{""72115"": 77.11, ""72071"": 17.13, ""72131"": 5.76}","Quebradillas|Isabela|San Sebastián","72115|72071|72131","FALSE","FALSE","America/Puerto_Rico"
"00680","18.16307","-67.36122","Mayaguez","PR","Puerto Rico","TRUE","","44904","269.6","72097","Mayagüez","{""72097"": 94.13, ""72125"": 3.44, ""72011"": 2.43}","Mayagüez|San Germán|Añasco","72097|72125|72011","FALSE","FALSE","America/Puerto_Rico"
"00682","18.22415","-67.15309","Mayaguez","PR","Puerto Rico","TRUE","","30212","715.2","72097","Mayagüez","{""72097"": 99.83, ""72067"": 0.17}","Mayagüez|Hormigueros","72097|72067","FALSE","FALSE","America/Puerto_Rico"
"00683","18.10926","-67.03803","San German","PR","Puerto Rico","TRUE","","28710","224.9","72125","San Germán","{""72125"": 100}","San Germán","72125","FALSE","FALSE","America/Puerto_Rico"
"00685","18.33656","-66.97518","San Sebastian","PR","Puerto Rico","TRUE","","36546","179.3","72131","San Sebastián","{""72131"": 87.74, ""72071"": 11.31, ""72099"": 0.95}","San Sebastián|Isabela|Moca","72131|72071|72099","FALSE","FALSE","America/Puerto_Rico"
"00687","18.31707","-66.42029","Morovis","PR","Puerto Rico","TRUE","","30652","304.5","72101","Morovis","{""72101"": 100}","Morovis","72101","FALSE","FALSE","America/Puerto_Rico"
"00688","18.3807","-66.62496","Sabana Hoyos","PR","Puerto Rico","TRUE","","11355","134.9","72013","Arecibo","{""72013"": 100}","Arecibo","72013","FALSE","FALSE","America/Puerto_Rico"
"00690","18.49363","-67.09734","San Antonio","PR","Puerto Rico","TRUE","","5900","1007.5","72005","Aguadilla","{""72005"": 100}","Aguadilla","72005","FALSE","FALSE","America/Puerto_Rico"
"00692","18.40905","-66.33768","Vega Alta","PR","Puerto Rico","TRUE","","34857","507.3","72143","Vega Alta","{""72143"": 99.87, ""72145"": 0.13}","Vega Alta|Vega Baja","72143|72145","FALSE","FALSE","America/Puerto_Rico"
"00693","18.42633","-66.39811","Vega Baja","PR","Puerto Rico","TRUE","","52220","454.0","72145","Vega Baja","{""72145"": 98.28, ""72143"": 1.43, ""72091"": 0.29}","Vega Baja|Vega Alta|Manatí","72145|72143|72091","FALSE","FALSE","America/Puerto_Rico"
"00694","18.48327","-66.39269","Vega Baja","PR","Puerto Rico","TRUE","","32","15.5","72145","Vega Baja","{""72145"": 100}","Vega Baja","72145","FALSE","FALSE","America/Puerto_Rico"
"00698","18.07274","-66.85519","Yauco","PR","Puerto Rico","TRUE","","34449","212.3","72153","Yauco","{""72153"": 97.82, ""72059"": 2.18}","Yauco|Guayanilla","72153|72059","FALSE","FALSE","America/Puerto_Rico"
"00703","18.24739","-66.13143","Aguas Buenas","PR","Puerto Rico","TRUE","","25619","318.9","72007","Aguas Buenas","{""72007"": 93.07, ""72041"": 3.61, ""72045"": 3.32}","Aguas Buenas|Cidra|Comerío","72007|72041|72045","FALSE","FALSE","America/Puerto_Rico"
"00704","17.97442","-66.22888","Aguirre","PR","Puerto Rico","TRUE","","7641","327.9","72123","Salinas","{""72123"": 97.64, ""72057"": 2.36}","Salinas|Guayama","72123|72057","FALSE","FALSE","America/Puerto_Rico"
"00705","18.1294","-66.26653","Aibonito","PR","Puerto Rico","TRUE","","22289","283.0","72009","Aibonito","{""72009"": 97.19, ""72043"": 2.81}","Aibonito|Coamo","72009|72043","FALSE","FALSE","America/Puerto_Rico"
"00707","18.01752","-65.92127","Maunabo","PR","Puerto Rico","TRUE","","10514","194.0","72095","Maunabo","{""72095"": 100}","Maunabo","72095","FALSE","FALSE","America/Puerto_Rico"
"00714","17.9981","-66.05635","Arroyo","PR","Puerto Rico","TRUE","","17413","448.1","72015","Arroyo","{""72015"": 100}","Arroyo","72015","FALSE","FALSE","America/Puerto_Rico"
"00715","17.99738","-66.56104","Mercedita","PR","Puerto Rico","TRUE","","2846","86.5","72113","Ponce","{""72113"": 99.08, ""72075"": 0.92}","Ponce|Juana Díaz","72113|72075","FALSE","FALSE","America/Puerto_Rico"
"00716","17.99942","-66.59868","Ponce","PR","Puerto Rico","TRUE","","26433","1177.4","72113","Ponce","{""72113"": 100}","Ponce","72113","FALSE","FALSE","America/Puerto_Rico"
"00717","18.00272","-66.61146","Ponce","PR","Puerto Rico","TRUE","","15115","2459.5","72113","Ponce","{""72113"": 100}","Ponce","72113","FALSE","FALSE","America/Puerto_Rico"
"00718","18.23145","-65.76067","Naguabo","PR","Puerto Rico","TRUE","","25543","208.9","72103","Naguabo","{""72103"": 99.86, ""72037"": 0.14}","Naguabo|Ceiba","72103|72037","FALSE","FALSE","America/Puerto_Rico"
"00719","18.28879","-66.25316","Naranjito","PR","Puerto Rico","TRUE","","28048","383.9","72105","Naranjito","{""72105"": 96.91, ""72047"": 2.22, ""72045"": 0.47, ""72135"": 0.4}","Naranjito|Corozal|Comerío|Toa Alta","72105|72047|72045|72135","FALSE","FALSE","America/Puerto_Rico"
"00720","18.21559","-66.42421","Orocovis","PR","Puerto Rico","TRUE","","20387","140.2","72107","Orocovis","{""72107"": 99.27, ""72043"": 0.73}","Orocovis|Coamo","72107|72043","FALSE","FALSE","America/Puerto_Rico"
"00723","18.03139","-66.01122","Patillas","PR","Puerto Rico","TRUE","","16645","139.7","72109","Patillas","{""72109"": 99.5, ""72095"": 0.5}","Patillas|Maunabo","72109|72095","FALSE","FALSE","America/Puerto_Rico"
"00725","18.22052","-66.03962","Caguas","PR","Puerto Rico","TRUE","","79395","741.1","72025","Caguas","{""72025"": 86.56, ""72061"": 4.45, ""72129"": 2.77, ""72127"": 2.23, ""72139"": 2.08, ""72007"": 1.9}","Caguas|Guaynabo|San Lorenzo|San Juan|Trujillo Alto|Aguas Buenas","72025|72061|72129|72127|72139|72007","FALSE","FALSE","America/Puerto_Rico"
"00727","18.21142","-66.07374","Caguas","PR","Puerto Rico","TRUE","","51772","885.9","72025","Caguas","{""72025"": 100}","Caguas","72025","FALSE","FALSE","America/Puerto_Rico"
"00728","18.00697","-66.65995","Ponce","PR","Puerto Rico","TRUE","","39204","983.1","72113","Ponce","{""72113"": 100}","Ponce","72113","FALSE","FALSE","America/Puerto_Rico"
"00729","18.33524","-65.88677","Canovanas","PR","Puerto Rico","TRUE","","50721","547.7","72029","Canóvanas","{""72029"": 91.45, ""72087"": 8.55}","Canóvanas|Loíza","72029|72087","FALSE","FALSE","America/Puerto_Rico"
"00730","18.03256","-66.61384","Ponce","PR","Puerto Rico","TRUE","","29075","1691.3","72113","Ponce","{""72113"": 100}","Ponce","72113","FALSE","FALSE","America/Puerto_Rico"
"00731","18.09914","-66.63279","Ponce","PR","Puerto Rico","TRUE","","12108","95.5","72113","Ponce","{""72113"": 97.12, ""72001"": 2.88}","Ponce|Adjuntas","72113|72001","FALSE","FALSE","America/Puerto_Rico"
"00735","18.2525","-65.67534","Ceiba","PR","Puerto Rico","TRUE","","11593","163.5","72037","Ceiba","{""72037"": 94.61, ""72103"": 5.39}","Ceiba|Naguabo","72037|72103","FALSE","FALSE","America/Puerto_Rico"
"00736","18.10736","-66.14994","Cayey","PR","Puerto Rico","TRUE","","45773","321.9","72035","Cayey","{""72035"": 92.46, ""72041"": 7.54}","Cayey|Cidra","72035|72041","FALSE","FALSE","America/Puerto_Rico"
"00738","18.31793","-65.66793","Fajardo","PR","Puerto Rico","TRUE","","28329","369.3","72053","Fajardo","{""72053"": 99.59, ""72037"": 0.41}","Fajardo|Ceiba","72053|72037","FALSE","FALSE","America/Puerto_Rico"
"00739","18.17543","-66.16198","Cidra","PR","Puerto Rico","TRUE","","35801","449.2","72041","Cidra","{""72041"": 100}","Cidra","72041","FALSE","FALSE","America/Puerto_Rico"
"00740","18.33251","-65.63419","Puerto Real","PR","Puerto Rico","TRUE","","1934","1788.4","72053","Fajardo","{""72053"": 100}","Fajardo","72053","FALSE","FALSE","America/Puerto_Rico"
"00741","18.16569","-65.75506","Punta Santiago","PR","Puerto Rico","TRUE","","3911","663.3","72069","Humacao","{""72069"": 100}","Humacao","72069","FALSE","FALSE","America/Puerto_Rico"
"00745","18.3466","-65.81382","Rio Grande","PR","Puerto Rico","TRUE","","49472","314.4","72119","Río Grande","{""72119"": 99.78, ""72029"": 0.22}","Río Grande|Canóvanas","72119|72029","FALSE","FALSE","America/Puerto_Rico"
"00751","18.01205","-66.25871","Salinas","PR","Puerto Rico","TRUE","","20662","131.4","72123","Salinas","{""72123"": 99.83, ""72035"": 0.17}","Salinas|Cayey","72123|72035","FALSE","FALSE","America/Puerto_Rico"
"00754","18.1447","-65.97565","San Lorenzo","PR","Puerto Rico","TRUE","","36309","280.4","72129","San Lorenzo","{""72129"": 100}","San Lorenzo","72129","FALSE","FALSE","America/Puerto_Rico"
"00757","17.9933","-66.39056","Santa Isabel","PR","Puerto Rico","TRUE","","21474","255.6","72133","Santa Isabel","{""72133"": 100}","Santa Isabel","72133","FALSE","FALSE","America/Puerto_Rico"
"00765","18.12365","-65.43013","Vieques","PR","Puerto Rico","TRUE","","8402","68.6","72147","Vieques","{""72147"": 100}","Vieques","72147","FALSE","FALSE","America/Puerto_Rico"
"00766","18.13039","-66.4757","Villalba","PR","Puerto Rico","TRUE","","22187","224.4","72149","Villalba","{""72149"": 93.48, ""72107"": 6.52}","Villalba|Orocovis","72149|72107","FALSE","FALSE","America/Puerto_Rico"
"00767","18.07033","-65.89618","Yabucoa","PR","Puerto Rico","TRUE","","32867","230.0","72151","Yabucoa","{""72151"": 99.33, ""72069"": 0.67}","Yabucoa|Humacao","72151|72069","FALSE","FALSE","America/Puerto_Rico"
"00769","18.09459","-66.3607","Coamo","PR","Puerto Rico","TRUE","","38500","192.9","72043","Coamo","{""72043"": 98.05, ""72133"": 1.95}","Coamo|Santa Isabel","72043|72133","FALSE","FALSE","America/Puerto_Rico"
"00771","18.18797","-65.86916","Las Piedras","PR","Puerto Rico","TRUE","","36388","418.1","72085","Las Piedras","{""72085"": 99.0, ""72069"": 1.0}","Las Piedras|Humacao","72085|72069","FALSE","FALSE","America/Puerto_Rico"
"00772","18.43048","-65.90377","Loiza","PR","Puerto Rico","TRUE","","18919","447.0","72087","Loíza","{""72087"": 100}","Loíza","72087","FALSE","FALSE","America/Puerto_Rico"
"00773","18.34073","-65.72756","Luquillo","PR","Puerto Rico","TRUE","","17924","287.2","72089","Luquillo","{""72089"": 100}","Luquillo","72089","FALSE","FALSE","America/Puerto_Rico"
"00775","18.31387","-65.28618","Culebra","PR","Puerto Rico","TRUE","","1326","44.0","72049","Culebra","{""72049"": 100}","Culebra","72049","FALSE","FALSE","America/Puerto_Rico"
"00777","18.22365","-65.90904","Juncos","PR","Puerto Rico","TRUE","","39580","569.1","72077","Juncos","{""72077"": 98.49, ""72129"": 0.82, ""72085"": 0.43, ""72029"": 0.14, ""72063"": 0.12}","Juncos|San Lorenzo|Las Piedras|Canóvanas|Gurabo","72077|72129|72085|72029|72063","FALSE","FALSE","America/Puerto_Rico"
"00778","18.26319","-65.97938","Gurabo","PR","Puerto Rico","TRUE","","46720","611.0","72063","Gurabo","{""72063"": 94.08, ""72129"": 5.92}","Gurabo|San Lorenzo","72063|72129","FALSE","FALSE","America/Puerto_Rico"
"00780","18.09998","-66.57032","Coto Laurel","PR","Puerto Rico","TRUE","","10887","219.7","72113","Ponce","{""72113"": 98.13, ""72075"": 1.87}","Ponce|Juana Díaz","72113|72075","FALSE","FALSE","America/Puerto_Rico"
"00782","18.22501","-66.22452","Comerio","PR","Puerto Rico","TRUE","","17310","238.9","72045","Comerío","{""72045"": 97.39, ""72019"": 2.61}","Comerío|Barranquitas","72045|72019","FALSE","FALSE","America/Puerto_Rico"
"00783","18.30348","-66.32851","Corozal","PR","Puerto Rico","TRUE","","32372","296.8","72047","Corozal","{""72047"": 99.06, ""72019"": 0.94}","Corozal|Barranquitas","72047|72019","FALSE","FALSE","America/Puerto_Rico"
"00784","18.00558","-66.13651","Guayama","PR","Puerto Rico","TRUE","","38894","225.0","72057","Guayama","{""72057"": 97.29, ""72035"": 1.53, ""72109"": 1.18}","Guayama|Cayey|Patillas","72057|72035|72109","FALSE","FALSE","America/Puerto_Rico"
"00786","18.1357","-66.22881","La Plata","PR","Puerto Rico","TRUE","","","","72009","Aibonito","{""72009"": 100}","Aibonito","72009","FALSE","FALSE","America/Puerto_Rico"
"00791","18.14391","-65.81398","Humacao","PR","Puerto Rico","TRUE","","47675","431.7","72069","Humacao","{""72069"": 97.88, ""72085"": 1.16, ""72151"": 0.96}","Humacao|Las Piedras|Yabucoa","72069|72085|72151","FALSE","FALSE","America/Puerto_Rico"
"00794","18.19934","-66.31179","Barranquitas","PR","Puerto Rico","TRUE","","28088","316.0","72019","Barranquitas","{""72019"": 96.51, ""72043"": 3.49}","Barranquitas|Coamo","72019|72043","FALSE","FALSE","America/Puerto_Rico"
"00795","18.05128","-66.49485","Juana Diaz","PR","Puerto Rico","TRUE","","43475","281.0","72075","Juana Díaz","{""72075"": 100}","Juana Díaz","72075","FALSE","FALSE","America/Puerto_Rico"
"00802","18.34349","-64.9287","St Thomas","VI","Virgin Islands","TRUE","","","","78030","St. Thomas","{""78030"": 100}","St. Thomas","78030","FALSE","FALSE","America/St_Thomas"
"00820","17.7388","-64.70695","Christiansted","VI","Virgin Islands","TRUE","","","","78010","St. Croix","{""78010"": 100}","St. Croix","78010","FALSE","FALSE","America/St_Thomas"
"00830","18.33857","-64.73802","St John","VI","Virgin Islands","TRUE","","","","78020","St. John","{""78020"": 100}","St. John","78020","FALSE","FALSE","America/St_Thomas"
"00840","17.72649","-64.84717","Frederiksted","VI","Virgin Islands","TRUE","","","","78010","St. Croix","{""78010"": 100}","St. Croix","78010","FALSE","FALSE","America/St_Thomas"
"00850","17.72763","-64.79122","Kingshill","VI","Virgin Islands","TRUE","","","","78010","St. Croix","{""78010"": 100}","St. Croix","78010","FALSE","FALSE","America/St_Thomas"
"00851","17.74757","-64.78737","Kingshill","VI","Virgin Islands","TRUE","","","","78010","St. Croix","{""78010"": 100}","St. Croix","78010","FALSE","FALSE","America/St_Thomas"
"00901","18.46478","-66.10277","San Juan","PR","Puerto Rico","TRUE","","7438","2830.2","72127","San Juan","{""72127"": 100}","San Juan","72127","FALSE","FALSE","America/Puerto_Rico"
"01103","42.10443","-72.58997","Springfield","MA","Massachusetts","TRUE","","1989","1766.2","25013","Hampden","{""25013"": 100}","Hampden","25013","FALSE","FALSE","America/New_York"
"01104","42.13326","-72.56733","Springfield","MA","Massachusetts","TRUE","","23150","1708.3","25013","Hampden","{""25013"": 100}","Hampden","25013","FALSE","FALSE","America/New_York"
"01105","42.09911","-72.57865","Springfield","MA","Massachusetts","TRUE","","12651","4050.6","25013","Hampden","{""25013"": 100}","Hampden","25013","FALSE","FALSE","America/New_York"
"01106","42.04877","-72.57163","Longmeadow","MA","Massachusetts","TRUE","","15982","643.7","25013","Hampden","{""25013"": 100}","Hampden","25013","FALSE","FALSE","America/New_York"
"01107","42.12116","-72.60642","Springfield","MA","Massachusetts","TRUE","","11693","2927.2","25013","Hampden","{""25013"": 100}","Hampden","25013","FALSE","FALSE","America/New_York"
"01108","42.0814","-72.55866","Springfield","MA","Massachusetts","TRUE","","26397","2961.8","25013","Hampden","{""25013"": 100}","Hampden","25013","FALSE","FALSE","America/New_York"
"01109","42.11839","-72.54876","Springfield","MA","Massachusetts","TRUE","","30684","2177.3","25013","Hampden","{""25013"": 100}","Hampden","25013","FALSE","FALSE","America/New_York"
"01118","42.09476","-72.5253","Springfield","MA","Massachusetts","TRUE","","14839","1593.4","25013","Hampden","{""25013"": 100}","Hampden","25013","FALSE","FALSE","America/New_York"
"01119","42.12452","-72.51126","Springfield","MA","Massachusetts","TRUE","","13253","1449.3","25013","Hampden","{""25013"": 100}","Hampden","25013","FALSE","FALSE","America/New_York"
"01128","42.09497","-72.48806","Springfield","MA","Massachusetts","TRUE","","2989","1040.7","25013","Hampden","{""25013"": 100}","Hampden","25013","FALSE","FALSE","America/New_York"
"01129","42.1211","-72.4877","Springfield","MA","Massachusetts","TRUE","","6296","707.5","25013","Hampden","{""25013"": 100}","Hampden","25013","FALSE","FALSE","America/New_York"
"01144","42.10189","-72.59091","Springfield","MA","Massachusetts","TRUE","","","","25013","Hampden","{""25013"": 100}","Hampden","25013","FALSE","FALSE","America/New_York"
"01151","42.15294","-72.50883","Indian Orchard","MA","Massachusetts","TRUE","","9485","1546.0","25013","Hampden","{""25013"": 100}","Hampden","25013","FALSE","FALSE","America/New_York"
"01201","42.45614","-73.28114","Pittsfield","MA","Massachusetts","TRUE","","43941","281.0","25003","Berkshire","{""25003"": 100}","Berkshire","25003","FALSE","FALSE","America/New_York"
"01220","42.62686","-73.11873","Adams","MA","Massachusetts","TRUE","","8129","137.1","25003","Berkshire","{""25003"": 100}","Berkshire","25003","FALSE","FALSE","America/New_York"
"01222","42.06242","-73.32146","Ashley Falls","MA","Massachusetts","TRUE","","720","60.5","25003","Berkshire","{""25003"": 100}","Berkshire","25003","FALSE","FALSE","America/New_York"
"01223","42.31118","-73.09835","Becket","MA","Massachusetts","TRUE","","2499","13.9","25003","Berkshire","{""25003"": 100}","Berkshire","25003","FALSE","FALSE","America/New_York"
"01224","42.50622","-73.19841","Berkshire","MA","Massachusetts","TRUE","","163","135.2","25003","Berkshire","{""25003"": 100}","Berkshire","25003","FALSE","FALSE","America/New_York"
"01225","42.56385","-73.1512","Cheshire","MA","Massachusetts","TRUE","","3093","44.5","25003","Berkshire","{""25003"": 100}","Berkshire","25003","FALSE","FALSE","America/New_York"
"01226","42.47954","-73.15329","Dalton","MA","Massachusetts","TRUE","","6698","118.9","25003","Berkshire","{""25003"": 100}","Berkshire","25003","FALSE","FALSE","America/New_York"
"01229","42.29411","-73.35227","Glendale","MA","Massachusetts","TRUE","","59","9.2","25003","Berkshire","{""25003"": 100}","Berkshire","25003","FALSE","FALSE","America/New_York"
"01230","42.18197","-73.34244","Great Barrington","MA","Massachusetts","TRUE","","8354","33.3","25003","Berkshire","{""25003"": 100}","Berkshire","25003","FALSE","FALSE","America/New_York"
"01235","42.43181","-73.07336","Hinsdale","MA","Massachusetts","TRUE","","2369","19.6","25003","Berkshire","{""25003"": 100}","Berkshire","25003","FALSE","FALSE","America/New_York"
"01236","42.26923","-73.37999","Housatonic","MA","Massachusetts","TRUE","","1577","92.0","25003","Berkshire","{""25003"": 100}","Berkshire","25003","FALSE","FALSE","America/New_York"
"01237","42.5529","-73.25373","Lanesborough","MA","Massachusetts","TRUE","","2522","19.7","25003","Berkshire","{""25003"": 100}","Berkshire","25003","FALSE","FALSE","America/New_York"
"01238","42.30072","-73.22553","Lee","MA","Massachusetts","TRUE","","5980","83.6","25003","Berkshire","{""25003"": 100}","Berkshire","25003","FALSE","FALSE","America/New_York"
"01240","42.37567","-73.26466","Lenox","MA","Massachusetts","TRUE","","4666","75.3","25003","Berkshire","{""25003"": 100}","Berkshire","25003","FALSE","FALSE","America/New_York"
"01242","42.3334","-73.24967","Lenox Dale","MA","Massachusetts","TRUE","","337","283.2","25003","Berkshire","{""25003"": 100}","Berkshire","25003","FALSE","FALSE","America/New_York"
"01243","42.34752","-73.03467","Middlefield","MA","Massachusetts","TRUE","","258","7.0","25015","Hampshire","{""25015"": 100}","Hampshire","25015","FALSE","FALSE","America/New_York"
"01244","42.10924","-73.27475","Mill River","MA","Massachusetts","TRUE","","120","8.0","25003","Berkshire","{""25003"": 100}","Berkshire","25003","FALSE","FALSE","America/New_York"
"01245","42.19043","-73.21579","Monterey","MA","Massachusetts","TRUE","","774","11.6","25003","Berkshire","{""25003"": 100}","Berkshire","25003","FALSE","FALSE","America/New_York"
"01247","42.69813","-73.09264","North Adams","MA","Massachusetts","TRUE","","15340","129.0","25003","Berkshire","{""25003"": 100}","Berkshire","25003","FALSE","FALSE","America/New_York"
"01253","42.20751","-73.1118","Otis","MA","Massachusetts","TRUE","","789","14.4","25003","Berkshire","{""25003"": 100}","Berkshire","25003","FALSE","FALSE","America/New_York"
"01254","42.37972","-73.36608","Richmond","MA","Massachusetts","TRUE","","961","25.7","25003","Berkshire","{""25003"": 100}","Berkshire","25003","FALSE","FALSE","America/New_York"
"01255","42.1068","-73.12213","Sandisfield","MA","Massachusetts","TRUE","","891","6.8","25003","Berkshire","{""25003"": 100}","Berkshire","25003","FALSE","FALSE","America/New_York"
"01256","42.59627","-73.01958","Savoy","MA","Massachusetts","TRUE","","701","7.5","25003","Berkshire","{""25003"": 100}","Berkshire","25003","FALSE","FALSE","America/New_York"
"01257","42.0976","-73.37241","Sheffield","MA","Massachusetts","TRUE","","1858","21.2","25003","Berkshire","{""25003"": 100}","Berkshire","25003","FALSE","FALSE","America/New_York"
"01258","42.09396","-73.46616","South Egremont","MA","Massachusetts","TRUE","","604","10.5","25003","Berkshire","{""25003"": 100}","Berkshire","25003","FALSE","FALSE","America/New_York"
"01259","42.07316","-73.23282","Southfield","MA","Massachusetts","TRUE","","617","10.4","25003","Berkshire","{""25003"": 100}","Berkshire","25003","FALSE","FALSE","America/New_York"
"01260","42.26663","-73.2712","South Lee","MA","Massachusetts","TRUE","","","","25003","Berkshire","{""25003"": 100}","Berkshire","25003","FALSE","FALSE","America/New_York"
"01262","42.30433","-73.32013","Stockbridge","MA","Massachusetts","TRUE","","1136","22.2","25003","Berkshire","{""25003"": 100}","Berkshire","25003","FALSE","FALSE","America/New_York"
"01264","42.23997","-73.19686","Tyringham","MA","Massachusetts","TRUE","","214","5.7","25003","Berkshire","{""25003"": 100}","Berkshire","25003","FALSE","FALSE","America/New_York"
"01266","42.30264","-73.39846","West Stockbridge","MA","Massachusetts","TRUE","","1281","24.5","25003","Berkshire","{""25003"": 100}","Berkshire","25003","FALSE","FALSE","America/New_York"
"01267","42.66593","-73.24209","Williamstown","MA","Massachusetts","TRUE","","7796","50.8","25003","Berkshire","{""25003"": 100}","Berkshire","25003","FALSE","FALSE","America/New_York"
"01270","42.51297","-73.04859","Windsor","MA","Massachusetts","TRUE","","897","10.7","25003","Berkshire","{""25003"": 100}","Berkshire","25003","FALSE","FALSE","America/New_York"
"01301","42.62375","-72.60379","Greenfield","MA","Massachusetts","TRUE","","17611","268.2","25011","Franklin","{""25011"": 100}","Franklin","25011","FALSE","FALSE","America/New_York"
"01330","42.51772","-72.81556","Ashfield","MA","Massachusetts","TRUE","","1594","17.9","25011","Franklin","{""25011"": 100}","Franklin","25011","FALSE","FALSE","America/New_York"
"01331","42.56793","-72.18324","Athol","MA","Massachusetts","TRUE","","13609","97.0","25027","Worcester","{""25027"": 99.72, ""25011"": 0.28}","Worcester|Franklin","25027|25011","FALSE","FALSE","America/New_York"
"01337","42.69512","-72.57731","Bernardston","MA","Massachusetts","TRUE","","2442","25.2","25011","Franklin","{""25011"": 100}","Franklin","25011","FALSE","FALSE","America/New_York"
"01338","42.5814","-72.80309","Buckland","MA","Massachusetts","TRUE","","150","44.2","25011","Franklin","{""25011"": 100}","Franklin","25011","FALSE","FALSE","America/New_York"
"01339","42.61099","-72.88846","Charlemont","MA","Massachusetts","TRUE","","1410","9.3","25011","Franklin","{""25011"": 100}","Franklin","25011","FALSE","FALSE","America/New_York"
"01340","42.68805","-72.73205","Colrain","MA","Massachusetts","TRUE","","1780","13.2","25011","Franklin","{""25011"": 100}","Franklin","25011","FALSE","FALSE","America/New_York"
"01341","42.50734","-72.70221","Conway","MA","Massachusetts","TRUE","","1796","20.7","25011","Franklin","{""25011"": 100}","Franklin","25011","FALSE","FALSE","America/New_York"
"01342","42.54384","-72.6058","Deerfield","MA","Massachusetts","TRUE","","1165","24.4","25011","Franklin","{""25011"": 100}","Franklin","25011","FALSE","FALSE","America/New_York"
"01343","42.66766","-72.98822","Drury","MA","Massachusetts","TRUE","","78","2.6","25003","Berkshire","{""25003"": 100}","Berkshire","25003","FALSE","FALSE","America/New_York"
"01344","42.60756","-72.42916","Erving","MA","Massachusetts","TRUE","","1343","37.6","25011","Franklin","{""25011"": 100}","Franklin","25011","FALSE","FALSE","America/New_York"
"01346","42.6706","-72.81323","Heath","MA","Massachusetts","TRUE","","544","15.7","25011","Franklin","{""25011"": 100}","Franklin","25011","FALSE","FALSE","America/New_York"
"01347","42.56027","-72.51321","Lake Pleasant","MA","Massachusetts","TRUE","","139","150.2","25011","Franklin","{""25011"": 100}","Franklin","25011","FALSE","FALSE","America/New_York"
"01349","42.56656","-72.47045","Millers Falls","MA","Massachusetts","TRUE","","1267","49.6","25011","Franklin","{""25011"": 100}","Franklin","25011","FALSE","FALSE","America/New_York"
"01350","42.72259","-72.98291","Monroe Bridge","MA","Massachusetts","TRUE","","100","3.6","25011","Franklin","{""25011"": 100}","Franklin","25011","FALSE","FALSE","America/New_York"
"01351","42.54162","-72.52069","Montague","MA","Massachusetts","TRUE","","2577","50.8","25011","Franklin","{""25011"": 100}","Franklin","25011","FALSE","FALSE","America/New_York"
"01354","42.63282","-72.51136","Gill","MA","Massachusetts","TRUE","","1732","48.6","25011","Franklin","{""25011"": 100}","Franklin","25011","FALSE","FALSE","America/New_York"
"01355","42.45101","-72.33141","New Salem","MA","Massachusetts","TRUE","","981","8.0","25011","Franklin","{""25011"": 100}","Franklin","25011","FALSE","FALSE","America/New_York"
"01360","42.67575","-72.446","Northfield","MA","Massachusetts","TRUE","","2973","33.5","25011","Franklin","{""25011"": 100}","Franklin","25011","FALSE","FALSE","America/New_York"
"01364","42.60449","-72.29263","Orange","MA","Massachusetts","TRUE","","7721","82.8","25011","Franklin","{""25011"": 100}","Franklin","25011","FALSE","FALSE","America/New_York"
"01366","42.48858","-72.18564","Petersham","MA","Massachusetts","TRUE","","1155","12.1","25027","Worcester","{""25027"": 100}","Worcester","25027","FALSE","FALSE","America/New_York"
"01367","42.69674","-72.91387","Rowe","MA","Massachusetts","TRUE","","519","8.2","25011","Franklin","{""25011"": 100}","Franklin","25011","FALSE","FALSE","America/New_York"
"01368","42.67815","-72.18557","Royalston","MA","Massachusetts","TRUE","","1451","12.6","25027","Worcester","{""25027"": 100}","Worcester","25027","FALSE","FALSE","America/New_York"
"01370","42.59607","-72.72915","Shelburne Falls","MA","Massachusetts","TRUE","","3727","29.9","25011","Franklin","{""25011"": 100}","Franklin","25011","FALSE","FALSE","America/New_York"
"01373","42.47292","-72.61516","South Deerfield","MA","Massachusetts","TRUE","","4866","81.5","25011","Franklin","{""25011"": 100}","Franklin","25011","FALSE","FALSE","America/New_York"
"01375","42.46475","-72.55489","Sunderland","MA","Massachusetts","TRUE","","3643","99.9","25011","Franklin","{""25011"": 100}","Franklin","25011","FALSE","FALSE","America/New_York"
"01376","42.59273","-72.54591","Turners Falls","MA","Massachusetts","TRUE","","4630","438.3","25011","Franklin","{""25011"": 100}","Franklin","25011","FALSE","FALSE","America/New_York"
"01378","42.67711","-72.34057","Warwick","MA","Massachusetts","TRUE","","738","7.6","25011","Franklin","{""25011"": 100}","Franklin","25011","FALSE","FALSE","America/New_York"
"01379","42.54149","-72.3989","Wendell","MA","Massachusetts","TRUE","","835","14.9","25011","Franklin","{""25011"": 100}","Franklin","25011","FALSE","FALSE","America/New_York"
"01380","42.58675","-72.40264","Wendell Depot","MA","Massachusetts","TRUE","","","","25011","Franklin","{""25011"": 100}","Franklin","25011","FALSE","FALSE","America/New_York"
"01420","42.58559","-71.81693","Fitchburg","MA","Massachusetts","TRUE","","40576","521.2","25027","Worcester","{""25027"": 100}","Worcester","25027","FALSE","FALSE","America/New_York"
"01430","42.66069","-71.9232","Ashburnham","MA","Massachusetts","TRUE","","6320","66.4","25027","Worcester","{""25027"": 100}","Worcester","25027","FALSE","FALSE","America/New_York"
"01431","42.67652","-71.82322","Ashby","MA","Massachusetts","TRUE","","3211","52.4","25017","Middlesex","{""25017"": 100}","Middlesex","25017","FALSE","FALSE","America/New_York"
"01432","42.56351","-71.57059","Ayer","MA","Massachusetts","TRUE","","7760","351.7","25017","Middlesex","{""25017"": 100}","Middlesex","25017","FALSE","FALSE","America/New_York"
"01434","42.53149","-71.61663","Devens","MA","Massachusetts","TRUE","","2007","119.0","25027","Worcester","{""25027"": 82.26, ""25017"": 17.74}","Worcester|Middlesex","25027|25017","FALSE","FALSE","America/New_York"
"01436","42.60579","-72.08958","Baldwinville","MA","Massachusetts","TRUE","","3538","151.9","25027","Worcester","{""25027"": 100}","Worcester","25027","FALSE","FALSE","America/New_York"
"01438","42.56028","-72.03583","East Templeton","MA","Massachusetts","TRUE","","512","608.8","25027","Worcester","{""25027"": 100}","Worcester","25027","FALSE","FALSE","America/New_York"
"01440","42.58797","-71.98649","Gardner","MA","Massachusetts","TRUE","","20605","324.6","25027","Worcester","{""25027"": 100}","Worcester","25027","FALSE","FALSE","America/New_York"
"01450","42.61368","-71.56139","Groton","MA","Massachusetts","TRUE","","11322","133.4","25017","Middlesex","{""25017"": 100}","Middlesex","25017","FALSE","FALSE","America/New_York"
"01451","42.50005","-71.57754","Harvard","MA","Massachusetts","TRUE","","4576","83.9","25027","Worcester","{""25027"": 100}","Worcester","25027","FALSE","FALSE","America/New_York"
"01452","42.48378","-72.00514","Hubbardston","MA","Massachusetts","TRUE","","4758","44.7","25027","Worcester","{""25027"": 100}","Worcester","25027","FALSE","FALSE","America/New_York"
"01453","42.51961","-71.76583","Leominster","MA","Massachusetts","TRUE","","41654","610.1","25027","Worcester","{""25027"": 100}","Worcester","25027","FALSE","FALSE","America/New_York"
"01460","42.53503","-71.4891","Littleton","MA","Massachusetts","TRUE","","10152","237.3","25017","Middlesex","{""25017"": 100}","Middlesex","25017","FALSE","FALSE","America/New_York"
"01462","42.58994","-71.72036","Lunenburg","MA","Massachusetts","TRUE","","11530","167.2","25027","Worcester","{""25027"": 100}","Worcester","25027","FALSE","FALSE","America/New_York"
"01463","42.67126","-71.60429","Pepperell","MA","Massachusetts","TRUE","","12113","207.1","25017","Middlesex","{""25017"": 100}","Middlesex","25017","FALSE","FALSE","America/New_York"
"01464","42.57411","-71.6475","Shirley","MA","Massachusetts","TRUE","","7616","194.4","25017","Middlesex","{""25017"": 100}","Middlesex","25017","FALSE","FALSE","America/New_York"
"01468","42.55324","-72.06879","Templeton","MA","Massachusetts","TRUE","","4065","71.5","25027","Worcester","{""25027"": 100}","Worcester","25027","FALSE","FALSE","America/New_York"
"01469","42.66514","-71.69161","Townsend","MA","Massachusetts","TRUE","","7812","139.5","25017","Middlesex","{""25017"": 100}","Middlesex","25017","FALSE","FALSE","America/New_York"
"01473","42.55122","-71.90266","Westminster","MA","Massachusetts","TRUE","","7874","85.8","25027","Worcester","{""25027"": 100}","Worcester","25027","FALSE","FALSE","America/New_York"
"01474","42.67088","-71.7508","West Townsend","MA","Massachusetts","TRUE","","1685","58.7","25017","Middlesex","{""25017"": 100}","Middlesex","25017","FALSE","FALSE","America/New_York"
"01475","42.66675","-72.04902","Winchendon","MA","Massachusetts","TRUE","","10831","97.8","25027","Worcester","{""25027"": 100}","Worcester","25027","FALSE","FALSE","America/New_York"
"01501","42.19689","-71.84549","Auburn","MA","Massachusetts","TRUE","","16627","420.8","25027","Worcester","{""25027"": 100}","Worcester","25027","FALSE","FALSE","America/New_York"
"01503","42.38378","-71.63552","Berlin","MA","Massachusetts","TRUE","","3312","98.6","25027","Worcester","{""25027"": 100}","Worcester","25027","FALSE","FALSE","America/New_York"
"01504","42.0399","-71.53125","Blackstone","MA","Massachusetts","TRUE","","9249","321.4","25027","Worcester","{""25027"": 100}","Worcester","25027","FALSE","FALSE","America/New_York"
"01505","42.35633","-71.72123","Boylston","MA","Massachusetts","TRUE","","4666","112.2","25027","Worcester","{""25027"": 100}","Worcester","25027","FALSE","FALSE","America/New_York"
"01862","42.57427","-71.29437","North Billerica","MA","Massachusetts","TRUE","","10519","446.0","25017","Middlesex","{""25017"": 100}","Middlesex","25017","FALSE","FALSE","America/New_York"
"01863","42.63274","-71.39132","North Chelmsford","MA","Massachusetts","TRUE","","9477","821.3","25017","Middlesex","{""25017"": 100}","Middlesex","25017","FALSE","FALSE","America/New_York"
"01864","42.58156","-71.08759","North Reading","MA","Massachusetts","TRUE","","15672","459.9","25017","Middlesex","{""25017"": 100}","Middlesex","25017","FALSE","FALSE","America/New_York"
"01867","42.53505","-71.1055","Reading","MA","Massachusetts","TRUE","","25236","977.8","25017","Middlesex","{""25017"": 100}","Middlesex","25017","FALSE","FALSE","America/New_York"
"01876","42.61206","-71.22733","Tewksbury","MA","Massachusetts","TRUE","","30973","574.1","25017","Middlesex","{""25017"": 99.19, ""25009"": 0.81}","Middlesex|Essex","25017|25009","FALSE","FALSE","America/New_York"
"01879","42.66626","-71.42911","Tyngsboro","MA","Massachusetts","TRUE","","12511","288.2","25017","Middlesex","{""25017"": 100}","Middlesex","25017","FALSE","FALSE","America/New_York"
"01880","42.50348","-71.06559","Wakefield","MA","Massachusetts","TRUE","","26704","1396.1","25017","Middlesex","{""25017"": 100}","Middlesex","25017","FALSE","FALSE","America/New_York"
"01886","42.58642","-71.44008","Westford","MA","Massachusetts","TRUE","","24566","313.6","25017","Middlesex","{""25017"": 100}","Middlesex","25017","FALSE","FALSE","America/New_York"
"01887","42.56091","-71.16541","Wilmington","MA","Massachusetts","TRUE","","23390","532.1","25017","Middlesex","{""25017"": 100}","Middlesex","25017","FALSE","FALSE","America/New_York"
"01890","42.45177","-71.14628","Winchester","MA","Massachusetts","TRUE","","22760","1456.9","25017","Middlesex","{""25017"": 100}","Middlesex","25017","FALSE","FALSE","America/New_York"
"01901","42.46125","-70.94639","Lynn","MA","Massachusetts","TRUE","","2370","3373.5","25009","Essex","{""25009"": 100}","Essex","25009","FALSE","FALSE","America/New_York"
"01902","42.4712","-70.93983","Lynn","MA","Massachusetts","TRUE","","49472","8060.3","25009","Essex","{""25009"": 100}","Essex","25009","FALSE","FALSE","America/New_York"
"01904","42.49151","-70.97166","Lynn","MA","Massachusetts","TRUE","","17928","1630.3","25009","Essex","{""25009"": 100}","Essex","25009","FALSE","FALSE","America/New_York"
"01905","42.46355","-70.9733","Lynn","MA","Massachusetts","TRUE","","24369","3084.8","25009","Essex","{""25009"": 100}","Essex","25009","FALSE","FALSE","America/New_York"
"01906","42.46922","-71.01299","Saugus","MA","Massachusetts","TRUE","","28334","944.9","25009","Essex","{""25009"": 100}","Essex","25009","FALSE","FALSE","America/New_York"
"01907","42.47572","-70.90684","Swampscott","MA","Massachusetts","TRUE","","15468","1975.6","25009","Essex","{""25009"": 100}","Essex","25009","FALSE","FALSE","America/New_York"
"01908","42.42856","-70.92614","Nahant","MA","Massachusetts","TRUE","","3512","1260.5","25009","Essex","{""25009"": 100}","Essex","25009","FALSE","FALSE","America/New_York"
"01913","42.85297","-70.94459","Amesbury","MA","Massachusetts","TRUE","","17474","548.9","25009","Essex","{""25009"": 100}","Essex","25009","FALSE","FALSE","America/New_York"
"01915","42.56841","-70.8647","Beverly","MA","Massachusetts","TRUE","","42062","1143.0","25009","Essex","{""25009"": 100}","Essex","25009","FALSE","FALSE","America/New_York"
"01921","42.6815","-71.01887","Boxford","MA","Massachusetts","TRUE","","8316","136.1","25009","Essex","{""25009"": 100}","Essex","25009","FALSE","FALSE","America/New_York"
"01922","42.75862","-70.91758","Byfield","MA","Massachusetts","TRUE","","3758","160.0","25009","Essex","{""25009"": 100}","Essex","25009","FALSE","FALSE","America/New_York"
"01923","42.57398","-70.94923","Danvers","MA","Massachusetts","TRUE","","27367","800.2","25009","Essex","{""25009"": 100}","Essex","25009","FALSE","FALSE","America/New_York"
"01929","42.63478","-70.77684","Essex","MA","Massachusetts","TRUE","","3771","104.5","25009","Essex","{""25009"": 100}","Essex","25009","FALSE","FALSE","America/New_York"
"01930","42.62605","-70.68966","Gloucester","MA","Massachusetts","TRUE","","30291","446.4","25009","Essex","{""25009"": 100}","Essex","25009","FALSE","FALSE","America/New_York"
"01937","42.58579","-70.98406","Hathorne","MA","Massachusetts","TRUE","","182","961.9","25009","Essex","{""25009"": 100}","Essex","25009","FALSE","FALSE","America/New_York"
"01938","42.68568","-70.83989","Ipswich","MA","Massachusetts","TRUE","","14022","168.6","25009","Essex","{""25009"": 100}","Essex","25009","FALSE","FALSE","America/New_York"
"01940","42.53523","-71.03695","Lynnfield","MA","Massachusetts","TRUE","","13429","514.5","25009","Essex","{""25009"": 100}","Essex","25009","FALSE","FALSE","America/New_York"
"01944","42.58154","-70.76825","Manchester","MA","Massachusetts","TRUE","","5400","225.9","25009","Essex","{""25009"": 100}","Essex","25009","FALSE","FALSE","America/New_York"
"01945","42.49924","-70.86348","Marblehead","MA","Massachusetts","TRUE","","20530","1789.4","25009","Essex","{""25009"": 100}","Essex","25009","FALSE","FALSE","America/New_York"
"01949","42.6043","-71.01641","Middleton","MA","Massachusetts","TRUE","","9952","285.7","25009","Essex","{""25009"": 100}","Essex","25009","FALSE","FALSE","America/New_York"
"01950","42.81237","-70.88785","Newburyport","MA","Massachusetts","TRUE","","18197","841.4","25009","Essex","{""25009"": 100}","Essex","25009","FALSE","FALSE","America/New_York"
"01951","42.77742","-70.85022","Newbury","MA","Massachusetts","TRUE","","3348","90.4","25009","Essex","{""25009"": 100}","Essex","25009","FALSE","FALSE","America/New_York"
"01952","42.84655","-70.86163","Salisbury","MA","Massachusetts","TRUE","","9477","238.0","25009","Essex","{""25009"": 100}","Essex","25009","FALSE","FALSE","America/New_York"
"01960","42.53374","-70.97222","Peabody","MA","Massachusetts","TRUE","","52880","1274.8","25009","Essex","{""25009"": 100}","Essex","25009","FALSE","FALSE","America/New_York"
"01965","42.56294","-70.82996","Prides Crossing","MA","Massachusetts","TRUE","","","","25009","Essex","{""25009"": 100}","Essex","25009","FALSE","FALSE","America/New_York"
"01966","42.65432","-70.62227","Rockport","MA","Massachusetts","TRUE","","7269","401.6","25009","Essex","{""25009"": 100}","Essex","25009","FALSE","FALSE","America/New_York"
"01969","42.72235","-70.88832","Rowley","MA","Massachusetts","TRUE","","6375","135.2","25009","Essex","{""25009"": 100}","Essex","25009","FALSE","FALSE","America/New_York"
"01970","42.51298","-70.90266","Salem","MA","Massachusetts","TRUE","","43120","2019.9","25009","Essex","{""25009"": 100}","Essex","25009","FALSE","FALSE","America/New_York"
"01982","42.62669","-70.85789","South Hamilton","MA","Massachusetts","TRUE","","8048","218.8","25009","Essex","{""25009"": 100}","Essex","25009","FALSE","FALSE","America/New_York"
"01983","42.63728","-70.94251","Topsfield","MA","Massachusetts","TRUE","","6613","214.6","25009","Essex","{""25009"": 100}","Essex","25009","FALSE","FALSE","America/New_York"
"01984","42.60078","-70.8826","Wenham","MA","Massachusetts","TRUE","","5208","262.6","25009","Essex","{""25009"": 100}","Essex","25009","FALSE","FALSE","America/New_York"
"01985","42.7939","-70.96906","West Newbury","MA","Massachusetts","TRUE","","4688","134.6","25009","Essex","{""25009"": 100}","Essex","25009","FALSE","FALSE","America/New_York"
"02019","42.0777","-71.47407","Bellingham","MA","Massachusetts","TRUE","","17196","362.0","25021","Norfolk","{""25021"": 100}","Norfolk","25021","FALSE","FALSE","America/New_York"
"02021","42.17504","-71.12645","Canton","MA","Massachusetts","TRUE","","23615","486.4","25021","Norfolk","{""25021"": 100}","Norfolk","25021","FALSE","FALSE","America/New_York"
"02025","42.23603","-70.81906","Cohasset","MA","Massachusetts","TRUE","","8520","336.6","25021","Norfolk","{""25021"": 100}","Norfolk","25021","FALSE","FALSE","America/New_York"
"02026","42.24665","-71.1777","Dedham","MA","Massachusetts","TRUE","","25316","951.7","25021","Norfolk","{""25021"": 100}","Norfolk","25021","FALSE","FALSE","America/New_York"
"02030","42.2366","-71.28421","Dover","MA","Massachusetts","TRUE","","6079","155.5","25021","Norfolk","{""25021"": 100}","Norfolk","25021","FALSE","FALSE","America/New_York"
"02032","42.15489","-71.2155","East Walpole","MA","Massachusetts","TRUE","","4360","719.9","25021","Norfolk","{""25021"": 100}","Norfolk","25021","FALSE","FALSE","America/New_York"
"02035","42.06266","-71.24613","Foxboro","MA","Massachusetts","TRUE","","17917","348.4","25021","Norfolk","{""25021"": 100}","Norfolk","25021","FALSE","FALSE","America/New_York"
"02038","42.08622","-71.41126","Franklin","MA","Massachusetts","TRUE","","33644","487.6","25021","Norfolk","{""25021"": 100}","Norfolk","25021","FALSE","FALSE","America/New_York"
"02043","42.21678","-70.88494","Hingham","MA","Massachusetts","TRUE","","23983","417.5","25023","Plymouth","{""25023"": 100}","Plymouth","25023","FALSE","FALSE","America/New_York"
"02045","42.28437","-70.88266","Hull","MA","Massachusetts","TRUE","","10478","1513.1","25023","Plymouth","{""25023"": 100}","Plymouth","25023","FALSE","FALSE","America/New_York"
"02047","42.14582","-70.69603","Humarock","MA","Massachusetts","TRUE","","156","104.4","25023","Plymouth","{""25023"": 100}","Plymouth","25023","FALSE","FALSE","America/New_York"
"02048","42.01626","-71.21868","Mansfield","MA","Massachusetts","TRUE","","24145","463.7","25005","Bristol","{""25005"": 100}","Bristol","25005","FALSE","FALSE","America/New_York"
"02050","42.11443","-70.71487","Marshfield","MA","Massachusetts","TRUE","","26109","350.5","25023","Plymouth","{""25023"": 100}","Plymouth","25023","FALSE","FALSE","America/New_York"
"02052","42.1848","-71.30501","Medfield","MA","Massachusetts","TRUE","","12926","346.4","25021","Norfolk","{""25021"": 100}","Norfolk","25021","FALSE","FALSE","America/New_York"
"02053","42.15352","-71.42906","Medway","MA","Massachusetts","TRUE","","13398","448.4","25021","Norfolk","{""25021"": 100}","Norfolk","25021","FALSE","FALSE","America/New_York"
"02054","42.1693","-71.36261","Millis","MA","Massachusetts","TRUE","","8288","265.9","25021","Norfolk","{""25021"": 100}","Norfolk","25021","FALSE","FALSE","America/New_York"
"02056","42.11632","-71.32952","Norfolk","MA","Massachusetts","TRUE","","11861","307.4","25021","Norfolk","{""25021"": 100}","Norfolk","25021","FALSE","FALSE","America/New_York"
"02061","42.16075","-70.81772","Norwell","MA","Massachusetts","TRUE","","11120","205.1","25023","Plymouth","{""25023"": 100}","Plymouth","25023","FALSE","FALSE","America/New_York"
"02062","42.18563","-71.19464","Norwood","MA","Massachusetts","TRUE","","29446","1077.7","25021","Norfolk","{""25021"": 100}","Norfolk","25021","FALSE","FALSE","America/New_York"
"02066","42.20129","-70.76155","Scituate","MA","Massachusetts","TRUE","","18511","433.2","25023","Plymouth","{""25023"": 100}","Plymouth","25023","FALSE","FALSE","America/New_York"
"02067","42.10778","-71.18183","Sharon","MA","Massachusetts","TRUE","","18653","317.5","25021","Norfolk","{""25021"": 100}","Norfolk","25021","FALSE","FALSE","America/New_York"
"02071","42.10392","-71.27002","South Walpole","MA","Massachusetts","TRUE","","1230","493.7","25021","Norfolk","{""25021"": 100}","Norfolk","25021","FALSE","FALSE","America/New_York"
"02072","42.1192","-71.10189","Stoughton","MA","Massachusetts","TRUE","","28742","689.9","25021","Norfolk","{""25021"": 100}","Norfolk","25021","FALSE","FALSE","America/New_York"
"02081","42.14689","-71.25916","Walpole","MA","Massachusetts","TRUE","","19850","432.4","25021","Norfolk","{""25021"": 100}","Norfolk","25021","FALSE","FALSE","America/New_York"
"02090","42.22024","-71.21057","Westwood","MA","Massachusetts","TRUE","","16229","575.4","25021","Norfolk","{""25021"": 100}","Norfolk","25021","FALSE","FALSE","America/New_York"
"02093","42.05129","-71.35522","Wrentham","MA","Massachusetts","TRUE","","11930","212.2","25021","Norfolk","{""25021"": 100}","Norfolk","25021","FALSE","FALSE","America/New_York"
"02108","42.35657","-71.06516","Boston","MA","Massachusetts","TRUE","","4520","6372.3","25025","Suffolk","{""25025"": 100}","Suffolk","25025","FALSE","FALSE","America/New_York"
"02109","42.36498","-71.05277","Boston","MA","Massachusetts","TRUE","","3639","8285.5","25025","Suffolk","{""25025"": 100}","Suffolk","25025","FALSE","FALSE","America/New_York"
"02110","42.35797","-71.05189","Boston","MA","Massachusetts","TRUE","","2340","5050.6","25025","Suffolk","{""25025"": 100}","Suffolk","25025","FALSE","FALSE","America/New_York"
"02111","42.35067","-71.06054","Boston","MA","Massachusetts","TRUE","","7949","15658.3","25025","Suffolk","{""25025"": 100}","Suffolk","25025","FALSE","FALSE","America/New_York"
"02113","42.36526","-71.05524","Boston","MA","Massachusetts","TRUE","","7339","29115.5","25025","Suffolk","{""25025"": 100}","Suffolk","25025","FALSE","FALSE","America/New_York"
"02114","42.36337","-71.06686","Boston","MA","Massachusetts","TRUE","","13260","11546.2","25025","Suffolk","{""25025"": 100}","Suffolk","25025","FALSE","FALSE","America/New_York"
"02115","42.34046","-71.09481","Boston","MA","Massachusetts","TRUE","","29134","15827.6","25025","Suffolk","{""25025"": 100}","Suffolk","25025","FALSE","FALSE","America/New_York"
"02116","42.35105","-71.07638","Boston","MA","Massachusetts","TRUE","","23007","13678.9","25025","Suffolk","{""25025"": 100}","Suffolk","25025","FALSE","FALSE","America/New_York"
"02118","42.33806","-71.07057","Boston","MA","Massachusetts","TRUE","","28892","10256.0","25025","Suffolk","{""25025"": 100}","Suffolk","25025","FALSE","FALSE","America/New_York"
"02119","42.32405","-71.08522","Roxbury","MA","Massachusetts","TRUE","","27426","6556.1","25025","Suffolk","{""25025"": 100}","Suffolk","25025","FALSE","FALSE","America/New_York"
"02120","42.33212","-71.09654","Roxbury Crossing","MA","Massachusetts","TRUE","","15210","9487.0","25025","Suffolk","{""25025"": 100}","Suffolk","25025","FALSE","FALSE","America/New_York"
"02121","42.3057","-71.08693","Dorchester","MA","Massachusetts","TRUE","","29570","6054.7","25025","Suffolk","{""25025"": 100}","Suffolk","25025","FALSE","FALSE","America/New_York"
"02122","42.29427","-71.05185","Dorchester","MA","Massachusetts","TRUE","","24874","5658.1","25025","Suffolk","{""25025"": 100}","Suffolk","25025","FALSE","FALSE","America/New_York"
"02124","42.28583","-71.07114","Dorchester Center","MA","Massachusetts","TRUE","","57128","7432.2","25025","Suffolk","{""25025"": 100}","Suffolk","25025","FALSE","FALSE","America/New_York"
"02125","42.31578","-71.0562","Dorchester","MA","Massachusetts","TRUE","","34725","6184.4","25025","Suffolk","{""25025"": 100}","Suffolk","25025","FALSE","FALSE","America/New_York"
"02126","42.27588","-71.0918","Mattapan","MA","Massachusetts","TRUE","","29807","6294.6","25025","Suffolk","{""25025"": 99.25, ""25021"": 0.75}","Suffolk|Norfolk","25025|25021","FALSE","FALSE","America/New_York"
"02127","42.33455","-71.03875","South Boston","MA","Massachusetts","TRUE","","36941","6931.6","25025","Suffolk","{""25025"": 100}","Suffolk","25025","FALSE","FALSE","America/New_York"
"02128","42.37324","-71.01616","East Boston","MA","Massachusetts","TRUE","","47804","3673.3","25025","Suffolk","{""25025"": 100}","Suffolk","25025","FALSE","FALSE","America/New_York"
"02129","42.37975","-71.06167","Charlestown","MA","Massachusetts","TRUE","","20504","5848.3","25025","Suffolk","{""25025"": 99.55, ""25017"": 0.45}","Suffolk|Middlesex","25025|25017","FALSE","FALSE","America/New_York"
"02130","42.30823","-71.11515","Jamaica Plain","MA","Massachusetts","TRUE","","42021","4582.7","25025","Suffolk","{""25025"": 100}","Suffolk","25025","FALSE","FALSE","America/New_York"
"02131","42.28392","-71.12468","Roslindale","MA","Massachusetts","TRUE","","34048","4715.8","25025","Suffolk","{""25025"": 100}","Suffolk","25025","FALSE","FALSE","America/New_York"
"02132","42.27931","-71.16072","West Roxbury","MA","Massachusetts","TRUE","","28263","2243.5","25025","Suffolk","{""25025"": 99.82, ""25021"": 0.18}","Suffolk|Norfolk","25025|25021","FALSE","FALSE","America/New_York"
"02133","42.35838","-71.06383","Boston","MA","Massachusetts","TRUE","","","","25025","Suffolk","{""25025"": 100}","Suffolk","25025","FALSE","FALSE","America/New_York"
"02134","42.35855","-71.12931","Allston","MA","Massachusetts","TRUE","","19552","6115.9","25025","Suffolk","{""25025"": 99.66, ""25017"": 0.34}","Suffolk|Middlesex","25025|25017","FALSE","FALSE","America/New_York"
"02135","42.34989","-71.15417","Brighton","MA","Massachusetts","TRUE","","45496","6756.9","25025","Suffolk","{""25025"": 100}","Suffolk","25025","FALSE","FALSE","America/New_York"
"02136","42.25505","-71.12662","Hyde Park","MA","Massachusetts","TRUE","","36417","3057.7","25025","Suffolk","{""25025"": 100}","Suffolk","25025","FALSE","FALSE","America/New_York"
"02138","42.37997","-71.13446","Cambridge","MA","Massachusetts","TRUE","","39139","5518.7","25017","Middlesex","{""25017"": 100}","Middlesex","25017","FALSE","FALSE","America/New_York"
"02139","42.36224","-71.10253","Cambridge","MA","Massachusetts","TRUE","","39702","9878.1","25017","Middlesex","{""25017"": 100}","Middlesex","25017","FALSE","FALSE","America/New_York"
"02140","42.39332","-71.13342","Cambridge","MA","Massachusetts","TRUE","","20954","6984.2","25017","Middlesex","{""25017"": 100}","Middlesex","25017","FALSE","FALSE","America/New_York"
"02141","42.37041","-71.08218","Cambridge","MA","Massachusetts","TRUE","","14437","9156.4","25017","Middlesex","{""25017"": 100}","Middlesex","25017","FALSE","FALSE","America/New_York"
"02142","42.36295","-71.08189","Cambridge","MA","Massachusetts","TRUE","","4074","5014.2","25017","Middlesex","{""25017"": 100}","Middlesex","25017","FALSE","FALSE","America/New_York"
"02143","42.38142","-71.09677","Somerville","MA","Massachusetts","TRUE","","25102","6274.8","25017","Middlesex","{""25017"": 100}","Middlesex","25017","FALSE","FALSE","America/New_York"
"02144","42.40088","-71.122","Somerville","MA","Massachusetts","TRUE","","25009","8843.5","25017","Middlesex","{""25017"": 100}","Middlesex","25017","FALSE","FALSE","America/New_York"
"02145","42.39206","-71.0895","Somerville","MA","Massachusetts","TRUE","","28372","7877.0","25017","Middlesex","{""25017"": 100}","Middlesex","25017","FALSE","FALSE","America/New_York"
"02148","42.43048","-71.05762","Malden","MA","Massachusetts","TRUE","","60710","4645.3","25017","Middlesex","{""25017"": 100}","Middlesex","25017","FALSE","FALSE","America/New_York"
"02149","42.40643","-71.05446","Everett","MA","Massachusetts","TRUE","","46275","5225.6","25017","Middlesex","{""25017"": 99.8, ""25025"": 0.2}","Middlesex|Suffolk","25017|25025","FALSE","FALSE","America/New_York"
"02150","42.39587","-71.03251","Chelsea","MA","Massachusetts","TRUE","","39862","6950.9","25025","Suffolk","{""25025"": 99.83, ""25017"": 0.17}","Suffolk|Middlesex","25025|25017","FALSE","FALSE","America/New_York"
"02151","42.41887","-71.004","Revere","MA","Massachusetts","TRUE","","53416","3614.9","25025","Suffolk","{""25025"": 100}","Suffolk","25025","FALSE","FALSE","America/New_York"
"02152","42.37724","-70.98115","Winthrop","MA","Massachusetts","TRUE","","18558","4323.6","25025","Suffolk","{""25025"": 100}","Suffolk","25025","FALSE","FALSE","America/New_York"
"02155","42.42324","-71.10878","Medford","MA","Massachusetts","TRUE","","60533","2853.8","25017","Middlesex","{""25017"": 100}","Middlesex","25017","FALSE","FALSE","America/New_York"
"02163","42.36717","-71.12509","Boston","MA","Massachusetts","TRUE","","2343","4930.9","25025","Suffolk","{""25025"": 100}","Suffolk","25025","FALSE","FALSE","America/New_York"
"02169","42.23971","-71.01802","Quincy","MA","Massachusetts","TRUE","","56999","1819.5","25021","Norfolk","{""25021"": 100}","Norfolk","25021","FALSE","FALSE","America/New_York"
"02170","42.26644","-71.01621","Quincy","MA","Massachusetts","TRUE","","19163","3548.7","25021","Norfolk","{""25021"": 100}","Norfolk","25021","FALSE","FALSE","America/New_York"
"02171","42.28709","-71.02604","Quincy","MA","Massachusetts","TRUE","","18227","2869.3","25021","Norfolk","{""25021"": 97.35, ""25025"": 2.65}","Norfolk|Suffolk","25021|25025","FALSE","FALSE","America/New_York"
"02176","42.45561","-71.05901","Melrose","MA","Massachusetts","TRUE","","28054","2312.9","25017","Middlesex","{""25017"": 100}","Middlesex","25017","FALSE","FALSE","America/New_York"
"02180","42.47396","-71.09705","Stoneham","MA","Massachusetts","TRUE","","23625","1525.9","25017","Middlesex","{""25017"": 100}","Middlesex","25017","FALSE","FALSE","America/New_York"
"02184","42.20386","-71.0022","Braintree","MA","Massachusetts","TRUE","","37196","1043.5","25021","Norfolk","{""25021"": 100}","Norfolk","25021","FALSE","FALSE","America/New_York"
"02186","42.23854","-71.08464","Milton","MA","Massachusetts","TRUE","","27590","777.8","25021","Norfolk","{""25021"": 100}","Norfolk","25021","FALSE","FALSE","America/New_York"
"02188","42.20724","-70.95764","Weymouth","MA","Massachusetts","TRUE","","16114","1611.1","25021","Norfolk","{""25021"": 100}","Norfolk","25021","FALSE","FALSE","America/New_York"
"02189","42.2111","-70.93135","East Weymouth","MA","Massachusetts","TRUE","","15337","1476.7","25021","Norfolk","{""25021"": 100}","Norfolk","25021","FALSE","FALSE","America/New_York"
"02190","42.16625","-70.95253","South Weymouth","MA","Massachusetts","TRUE","","17466","964.0","25021","Norfolk","{""25021"": 100}","Norfolk","25021","FALSE","FALSE","America/New_York"
"02191","42.24434","-70.94378","North Weymouth","MA","Massachusetts","TRUE","","8296","1786.2","25021","Norfolk","{""25021"": 100}","Norfolk","25021","FALSE","FALSE","America/New_York"
"02199","42.34748","-71.08199","Boston","MA","Massachusetts","TRUE","","1435","9675.0","25025","Suffolk","{""25025"": 100}","Suffolk","25025","FALSE","FALSE","America/New_York"
"02203","42.36144","-71.05945","Boston","MA","Massachusetts","TRUE","","24","960.1","25025","Suffolk","{""25025"": 100}","Suffolk","25025","FALSE","FALSE","America/New_York"
"02205","42.34935","-71.05564","Boston","MA","Massachusetts","TRUE","","","","25025","Suffolk","{""25025"": 100}","Suffolk","25025","FALSE","FALSE","America/New_York"
"02210","42.34815","-71.03942","Boston","MA","Massachusetts","TRUE","","4538","1898.9","25025","Suffolk","{""25025"": 100}","Suffolk","25025","FALSE","FALSE","America/New_York"
"02215","42.34741","-71.10276","Boston","MA","Massachusetts","TRUE","","26243","11458.2","25025","Suffolk","{""25025"": 95.71, ""25021"": 4.29}","Suffolk|Norfolk","25025|25021","FALSE","FALSE","America/New_York"
"02301","42.07791","-71.04223","Brockton","MA","Massachusetts","TRUE","","63920","1982.8","25023","Plymouth","{""25023"": 100}","Plymouth","25023","FALSE","FALSE","America/New_York"
"02302","42.08792","-70.99864","Brockton","MA","Massachusetts","TRUE","","31820","1383.3","25023","Plymouth","{""25023"": 100}","Plymouth","25023","FALSE","FALSE","America/New_York"
"02322","42.12666","-71.04922","Avon","MA","Massachusetts","TRUE","","4513","406.0","25021","Norfolk","{""25021"": 100}","Norfolk","25021","FALSE","FALSE","America/New_York"
"02324","41.97272","-70.97498","Bridgewater","MA","Massachusetts","TRUE","","27441","392.7","25023","Plymouth","{""25023"": 100}","Plymouth","25023","FALSE","FALSE","America/New_York"
"02325","41.98875","-70.96449","Bridgewater","MA","Massachusetts","TRUE","","","","25023","Plymouth","{""25023"": 100}","Plymouth","25023","FALSE","FALSE","America/New_York"
"02330","41.87388","-70.7563","Carver","MA","Massachusetts","TRUE","","11745","121.6","25023","Plymouth","{""25023"": 100}","Plymouth","25023","FALSE","FALSE","America/New_York"
"02332","42.04651","-70.71388","Duxbury","MA","Massachusetts","TRUE","","15912","259.2","25023","Plymouth","{""25023"": 100}","Plymouth","25023","FALSE","FALSE","America/New_York"
"02333","42.03521","-70.94235","East Bridgewater","MA","Massachusetts","TRUE","","14509","325.8","25023","Plymouth","{""25023"": 100}","Plymouth","25023","FALSE","FALSE","America/New_York"
"02338","41.99138","-70.86326","Halifax","MA","Massachusetts","TRUE","","7830","189.3","25023","Plymouth","{""25023"": 100}","Plymouth","25023","FALSE","FALSE","America/New_York"
"02339","42.12241","-70.85665","Hanover","MA","Massachusetts","TRUE","","14526","361.0","25023","Plymouth","{""25023"": 100}","Plymouth","25023","FALSE","FALSE","America/New_York"
"02341","42.05604","-70.87251","Hanson","MA","Massachusetts","TRUE","","10874","281.7","25023","Plymouth","{""25023"": 100}","Plymouth","25023","FALSE","FALSE","America/New_York"
"02343","42.14733","-71.00484","Holbrook","MA","Massachusetts","TRUE","","11051","608.6","25021","Norfolk","{""25021"": 100}","Norfolk","25021","FALSE","FALSE","America/New_York"
"02346","41.88034","-70.87446","Middleboro","MA","Massachusetts","TRUE","","25139","140.6","25023","Plymouth","{""25023"": 100}","Plymouth","25023","FALSE","FALSE","America/New_York"
"02347","41.83101","-70.9594","Lakeville","MA","Massachusetts","TRUE","","11531","150.4","25023","Plymouth","{""25023"": 100}","Plymouth","25023","FALSE","FALSE","America/New_York"
"02350","42.02043","-70.84562","Monponsett","MA","Massachusetts","TRUE","","","","25023","Plymouth","{""25023"": 100}","Plymouth","25023","FALSE","FALSE","America/New_York"
"02351","42.11805","-70.95905","Abington","MA","Massachusetts","TRUE","","16557","641.6","25023","Plymouth","{""25023"": 100}","Plymouth","25023","FALSE","FALSE","America/New_York"
"02356","42.05519","-71.12071","North Easton","MA","Massachusetts","TRUE","","12474","354.0","25005","Bristol","{""25005"": 100}","Bristol","25005","FALSE","FALSE","America/New_York"
"02357","42.06224","-71.07751","North Easton","MA","Massachusetts","TRUE","","1050","1044.2","25005","Bristol","{""25005"": 100}","Bristol","25005","FALSE","FALSE","America/New_York"
"02359","42.06547","-70.8014","Pembroke","MA","Massachusetts","TRUE","","18455","327.0","25023","Plymouth","{""25023"": 100}","Plymouth","25023","FALSE","FALSE","America/New_York"
"02360","41.87817","-70.63089","Plymouth","MA","Massachusetts","TRUE","","60797","243.5","25023","Plymouth","{""25023"": 100}","Plymouth","25023","FALSE","FALSE","America/New_York"
"02364","41.98616","-70.74823","Kingston","MA","Massachusetts","TRUE","","13746","284.7","25023","Plymouth","{""25023"": 100}","Plymouth","25023","FALSE","FALSE","America/New_York"
"02366","41.84868","-70.6613","South Carver","MA","Massachusetts","TRUE","","194","1672.9","25023","Plymouth","{""25023"": 100}","Plymouth","25023","FALSE","FALSE","America/New_York"
"02367","41.96345","-70.80975","Plympton","MA","Massachusetts","TRUE","","2979","78.3","25023","Plymouth","{""25023"": 100}","Plymouth","25023","FALSE","FALSE","America/New_York"
"02368","42.17506","-71.05011","Randolph","MA","Massachusetts","TRUE","","34214","1416.9","25021","Norfolk","{""25021"": 100}","Norfolk","25021","FALSE","FALSE","America/New_York"
"02370","42.1295","-70.91002","Rockland","MA","Massachusetts","TRUE","","18010","693.4","25023","Plymouth","{""25023"": 100}","Plymouth","25023","FALSE","FALSE","America/New_York"
"02375","42.01954","-71.10381","South Easton","MA","Massachusetts","TRUE","","11336","317.6","25005","Bristol","{""25005"": 100}","Bristol","25005","FALSE","FALSE","America/New_York"
"02379","42.02139","-71.0267","West Bridgewater","MA","Massachusetts","TRUE","","7254","182.8","25023","Plymouth","{""25023"": 100}","Plymouth","25023","FALSE","FALSE","America/New_York"
"02382","42.08","-70.93993","Whitman","MA","Massachusetts","TRUE","","15139","842.7","25023","Plymouth","{""25023"": 100}","Plymouth","25023","FALSE","FALSE","America/New_York"
"02420","42.45821","-71.21762","Lexington","MA","Massachusetts","TRUE","","14726","807.9","25017","Middlesex","{""25017"": 100}","Middlesex","25017","FALSE","FALSE","America/New_York"
"02421","42.438","-71.23922","Lexington","MA","Massachusetts","TRUE","","18578","749.6","25017","Middlesex","{""25017"": 100}","Middlesex","25017","FALSE","FALSE","America/New_York"
"02445","42.32581","-71.13319","Brookline","MA","Massachusetts","TRUE","","20520","3034.3","25021","Norfolk","{""25021"": 97.44, ""25025"": 2.56}","Norfolk|Suffolk","25021|25025","FALSE","FALSE","America/New_York"
"02446","42.3435","-71.12179","Brookline","MA","Massachusetts","TRUE","","29711","8932.2","25021","Norfolk","{""25021"": 99.9, ""25025"": 0.1}","Norfolk|Suffolk","25021|25025","FALSE","FALSE","America/New_York"
"02451","42.39859","-71.2573","Waltham","MA","Massachusetts","TRUE","","17470","1267.9","25017","Middlesex","{""25017"": 100}","Middlesex","25017","FALSE","FALSE","America/New_York"
"02452","42.39365","-71.2202","Waltham","MA","Massachusetts","TRUE","","15636","1583.2","25017","Middlesex","{""25017"": 100}","Middlesex","25017","FALSE","FALSE","America/New_York"
"02453","42.36918","-71.24101","Waltham","MA","Massachusetts","TRUE","","29289","3148.3","25017","Middlesex","{""25017"": 100}","Middlesex","25017","FALSE","FALSE","America/New_York"
"02457","42.29777","-71.26887","Babson Park","MA","Massachusetts","TRUE","","1812","3454.7","25021","Norfolk","{""25021"": 100}","Norfolk","25021","FALSE","FALSE","America/New_York"
"02458","42.35294","-71.18763","Newton","MA","Massachusetts","TRUE","","12050","2367.0","25017","Middlesex","{""25017"": 100}","Middlesex","25017","FALSE","FALSE","America/New_York"
"02459","42.31515","-71.19174","Newton Center","MA","Massachusetts","TRUE","","18631","1429.1","25017","Middlesex","{""25017"": 100}","Middlesex","25017","FALSE","FALSE","America/New_York"
"02460","42.35206","-71.20835","Newtonville","MA","Massachusetts","TRUE","","9885","2831.6","25017","Middlesex","{""25017"": 100}","Middlesex","25017","FALSE","FALSE","America/New_York"
"02461","42.31693","-71.20875","Newton Highlands","MA","Massachusetts","TRUE","","6923","1741.2","25017","Middlesex","{""25017"": 100}","Middlesex","25017","FALSE","FALSE","America/New_York"
"02462","42.33102","-71.25599","Newton Lower Falls","MA","Massachusetts","TRUE","","1222","675.6","25017","Middlesex","{""25017"": 99.45, ""25021"": 0.55}","Middlesex|Norfolk","25017|25021","FALSE","FALSE","America/New_York"
"02464","42.31274","-71.21981","Newton Upper Falls","MA","Massachusetts","TRUE","","3706","2598.9","25017","Middlesex","{""25017"": 99.58, ""25021"": 0.42}","Middlesex|Norfolk","25017|25021","FALSE","FALSE","America/New_York"
"02465","42.34969","-71.22646","West Newton","MA","Massachusetts","TRUE","","11967","2148.0","25017","Middlesex","{""25017"": 100}","Middlesex","25017","FALSE","FALSE","America/New_York"
"02466","42.34541","-71.24759","Auburndale","MA","Massachusetts","TRUE","","9292","2260.2","25017","Middlesex","{""25017"": 100}","Middlesex","25017","FALSE","FALSE","America/New_York"
"02467","42.31725","-71.16096","Chestnut Hill","MA","Massachusetts","TRUE","","22982","1808.8","25021","Norfolk","{""25021"": 57.05, ""25017"": 28.65, ""25025"": 14.3}","Norfolk|Middlesex|Suffolk","25021|25017|25025","FALSE","FALSE","America/New_York"
"02468","42.32777","-71.23142","Waban","MA","Massachusetts","TRUE","","5522","1388.0","25017","Middlesex","{""25017"": 100}","Middlesex","25017","FALSE","FALSE","America/New_York"
"02472","42.37","-71.17713","Watertown","MA","Massachusetts","TRUE","","35951","3444.2","25017","Middlesex","{""25017"": 100}","Middlesex","25017","FALSE","FALSE","America/New_York"
"02474","42.42053","-71.15666","Arlington","MA","Massachusetts","TRUE","","27853","3516.2","25017","Middlesex","{""25017"": 100}","Middlesex","25017","FALSE","FALSE","America/New_York"
"02476","42.41597","-71.17437","Arlington","MA","Massachusetts","TRUE","","17526","3246.4","25017","Middlesex","{""25017"": 100}","Middlesex","25017","FALSE","FALSE","America/New_York"
"02478","42.39602","-71.17955","Belmont","MA","Massachusetts","TRUE","","26123","2171.2","25017","Middlesex","{""25017"": 100}","Middlesex","25017","FALSE","FALSE","America/New_York"
"02481","42.31064","-71.27779","Wellesley Hills","MA","Massachusetts","TRUE","","16121","1022.1","25021","Norfolk","{""25021"": 100}","Norfolk","25021","FALSE","FALSE","America/New_York"
"02482","42.29455","-71.29859","Wellesley","MA","Massachusetts","TRUE","","10814","1122.1","25021","Norfolk","{""25021"": 100}","Norfolk","25021","FALSE","FALSE","America/New_York"
"02492","42.27615","-71.24387","Needham","MA","Massachusetts","TRUE","","20679","840.0","25021","Norfolk","{""25021"": 100}","Norfolk","25021","FALSE","FALSE","America/New_York"
"02493","42.35893","-71.30009","Weston","MA","Massachusetts","TRUE","","12103","277.8","25017","Middlesex","{""25017"": 100}","Middlesex","25017","FALSE","FALSE","America/New_York"
"02494","42.29959","-71.2317","Needham Heights","MA","Massachusetts","TRUE","","10498","1447.4","25021","Norfolk","{""25021"": 100}","Norfolk","25021","FALSE","FALSE","America/New_York"
"02532","41.75111","-70.59713","Buzzards Bay","MA","Massachusetts","TRUE","","13443","376.5","25001","Barnstable","{""25001"": 89.93, ""25023"": 10.07}","Barnstable|Plymouth","25001|25023","FALSE","FALSE","America/New_York"
"02534","41.66626","-70.61628","Cataumet","MA","Massachusetts","TRUE","","1082","152.5","25001","Barnstable","{""25001"": 100}","Barnstable","25001","FALSE","FALSE","America/New_York"
"02535","41.34896","-70.74629","Chilmark","MA","Massachusetts","TRUE","","2005","31.8","25007","Dukes","{""25007"": 100}","Dukes","25007","FALSE","FALSE","America/New_York"
"02536","41.59706","-70.56677","East Falmouth","MA","Massachusetts","TRUE","","19629","277.0","25001","Barnstable","{""25001"": 100}","Barnstable","25001","FALSE","FALSE","America/New_York"
"02537","41.72882","-70.44317","East Sandwich","MA","Massachusetts","TRUE","","6824","192.0","25001","Barnstable","{""25001"": 100}","Barnstable","25001","FALSE","FALSE","America/New_York"
"02538","41.77872","-70.65077","East Wareham","MA","Massachusetts","TRUE","","4129","254.5","25023","Plymouth","{""25023"": 100}","Plymouth","25023","FALSE","FALSE","America/New_York"
"02539","41.37994","-70.53227","Edgartown","MA","Massachusetts","TRUE","","4358","62.8","25007","Dukes","{""25007"": 100}","Dukes","25007","FALSE","FALSE","America/New_York"
"02540","41.57128","-70.62807","Falmouth","MA","Massachusetts","TRUE","","8241","289.1","25001","Barnstable","{""25001"": 100}","Barnstable","25001","FALSE","FALSE","America/New_York"
"02542","41.70194","-70.54824","Buzzards Bay","MA","Massachusetts","TRUE","","948","12.8","25001","Barnstable","{""25001"": 100}","Barnstable","25001","FALSE","FALSE","America/New_York"
"02543","41.48731","-70.74525","Woods Hole","MA","Massachusetts","TRUE","","680","23.2","25007","Dukes","{""25007"": 83.01, ""25001"": 16.99}","Dukes|Barnstable","25007|25001","FALSE","FALSE","America/New_York"
"02553","41.71297","-70.62011","Monument Beach","MA","Massachusetts","TRUE","","96","187.4","25001","Barnstable","{""25001"": 100}","Barnstable","25001","FALSE","FALSE","America/New_York"
"02554","41.28555","-70.08043","Nantucket","MA","Massachusetts","TRUE","","11023","106.4","25019","Nantucket","{""25019"": 100}","Nantucket","25019","FALSE","FALSE","America/New_York"
"02556","41.63903","-70.62521","North Falmouth","MA","Massachusetts","TRUE","","2554","249.8","25001","Barnstable","{""25001"": 100}","Barnstable","25001","FALSE","FALSE","America/New_York"
"02557","41.44218","-70.56648","Oak Bluffs","MA","Massachusetts","TRUE","","4701","560.2","25007","Dukes","{""25007"": 100}","Dukes","25007","FALSE","FALSE","America/New_York"
"02558","41.74453","-70.65377","Onset","MA","Massachusetts","TRUE","","1632","564.2","25023","Plymouth","{""25023"": 100}","Plymouth","25023","FALSE","FALSE","America/New_York"
"02559","41.69237","-70.61374","Pocasset","MA","Massachusetts","TRUE","","3228","233.7","25001","Barnstable","{""25001"": 100}","Barnstable","25001","FALSE","FALSE","America/New_York"
"02561","41.76782","-70.53281","Sagamore","MA","Massachusetts","TRUE","","257","119.7","25001","Barnstable","{""25001"": 100}","Barnstable","25001","FALSE","FALSE","America/New_York"
"02562","41.78753","-70.52746","Sagamore Beach","MA","Massachusetts","TRUE","","2814","321.8","25001","Barnstable","{""25001"": 100}","Barnstable","25001","FALSE","FALSE","America/New_York"
"02563","41.71995","-70.4818","Sandwich","MA","Massachusetts","TRUE","","9728","284.2","25001","Barnstable","{""25001"": 100}","Barnstable","25001","FALSE","FALSE","America/New_York"
"02564","41.26552","-69.98608","Siasconset","MA","Massachusetts","TRUE","","189","12.0","25019","Nantucket","{""25019"": 100}","Nantucket","25019","FALSE","FALSE","America/New_York"
"02568","41.44341","-70.61534","Vineyard Haven","MA","Massachusetts","TRUE","","4132","124.2","25007","Dukes","{""25007"": 100}","Dukes","25007","FALSE","FALSE","America/New_York"
"02571","41.76184","-70.70138","Wareham","MA","Massachusetts","TRUE","","10858","224.2","25023","Plymouth","{""25023"": 100}","Plymouth","25023","FALSE","FALSE","America/New_York"
"02575","41.39651","-70.65496","West Tisbury","MA","Massachusetts","TRUE","","2197","37.3","25007","Dukes","{""25007"": 100}","Dukes","25007","FALSE","FALSE","America/New_York"
"02576","41.77807","-70.76338","West Wareham","MA","Massachusetts","TRUE","","4171","171.2","25023","Plymouth","{""25023"": 100}","Plymouth","25023","FALSE","FALSE","America/New_York"
"02584","41.25753","-70.00522","Nantucket","MA","Massachusetts","TRUE","","0","0.0","25019","Nantucket","{""25019"": 100}","Nantucket","25019","FALSE","FALSE","America/New_York"
"02601","41.66","-70.29327","Hyannis","MA","Massachusetts","TRUE","","14939","657.8","25001","Barnstable","{""25001"": 100}","Barnstable","25001","FALSE","FALSE","America/New_York"
"02630","41.69674","-70.3052","Barnstable","MA","Massachusetts","TRUE","","1892","149.7","25001","Barnstable","{""25001"": 100}","Barnstable","25001","FALSE","FALSE","America/New_York"
"02631","41.74673","-70.06894","Brewster","MA","Massachusetts","TRUE","","9565","166.4","25001","Barnstable","{""25001"": 100}","Barnstable","25001","FALSE","FALSE","America/New_York"
"02632","41.66074","-70.34826","Centerville","MA","Massachusetts","TRUE","","11105","574.7","25001","Barnstable","{""25001"": 100}","Barnstable","25001","FALSE","FALSE","America/New_York"
"02633","41.68949","-69.97397","Chatham","MA","Massachusetts","TRUE","","4040","180.7","25001","Barnstable","{""25001"": 100}","Barnstable","25001","FALSE","FALSE","America/New_York"
"02635","41.62348","-70.44051","Cotuit","MA","Massachusetts","TRUE","","2826","198.8","25001","Barnstable","{""25001"": 100}","Barnstable","25001","FALSE","FALSE","America/New_York"
"02637","41.70493","-70.27245","Cummaquid","MA","Massachusetts","TRUE","","184","92.0","25001","Barnstable","{""25001"": 100}","Barnstable","25001","FALSE","FALSE","America/New_York"
"02638","41.73225","-70.19459","Dennis","MA","Massachusetts","TRUE","","3028","207.4","25001","Barnstable","{""25001"": 100}","Barnstable","25001","FALSE","FALSE","America/New_York"
"02639","41.66639","-70.13535","Dennis Port","MA","Massachusetts","TRUE","","3147","434.5","25001","Barnstable","{""25001"": 100}","Barnstable","25001","FALSE","FALSE","America/New_York"
"02641","41.75221","-70.15176","East Dennis","MA","Massachusetts","TRUE","","202","47.0","25001","Barnstable","{""25001"": 100}","Barnstable","25001","FALSE","FALSE","America/New_York"
"02642","41.83976","-69.97711","Eastham","MA","Massachusetts","TRUE","","4873","134.7","25001","Barnstable","{""25001"": 100}","Barnstable","25001","FALSE","FALSE","America/New_York"
"02643","41.75534","-69.94002","East Orleans","MA","Massachusetts","TRUE","","0","0.0","25001","Barnstable","{""25001"": 100}","Barnstable","25001","FALSE","FALSE","America/New_York"
"02644","41.68361","-70.51202","Forestdale","MA","Massachusetts","TRUE","","3744","428.4","25001","Barnstable","{""25001"": 100}","Barnstable","25001","FALSE","FALSE","America/New_York"
"02645","41.70352","-70.06215","Harwich","MA","Massachusetts","TRUE","","9730","222.0","25001","Barnstable","{""25001"": 100}","Barnstable","25001","FALSE","FALSE","America/New_York"
"02646","41.67103","-70.07144","Harwich Port","MA","Massachusetts","TRUE","","1715","228.1","25001","Barnstable","{""25001"": 100}","Barnstable","25001","FALSE","FALSE","America/New_York"
"02647","41.63127","-70.30909","Hyannis Port","MA","Massachusetts","TRUE","","121","108.3","25001","Barnstable","{""25001"": 100}","Barnstable","25001","FALSE","FALSE","America/New_York"
"02648","41.67237","-70.41545","Marstons Mills","MA","Massachusetts","TRUE","","6833","264.3","25001","Barnstable","{""25001"": 100}","Barnstable","25001","FALSE","FALSE","America/New_York"
"02649","41.61778","-70.49077","Mashpee","MA","Massachusetts","TRUE","","14204","234.4","25001","Barnstable","{""25001"": 100}","Barnstable","25001","FALSE","FALSE","America/New_York"
"02650","41.7036","-69.96589","North Chatham","MA","Massachusetts","TRUE","","865","244.8","25001","Barnstable","{""25001"": 100}","Barnstable","25001","FALSE","FALSE","America/New_York"
"02652","42.0428","-70.09276","North Truro","MA","Massachusetts","TRUE","","710","32.6","25001","Barnstable","{""25001"": 100}","Barnstable","25001","FALSE","FALSE","America/New_York"
"02653","41.76901","-69.9737","Orleans","MA","Massachusetts","TRUE","","5865","187.9","25001","Barnstable","{""25001"": 100}","Barnstable","25001","FALSE","FALSE","America/New_York"
"02655","41.62972","-70.39263","Osterville","MA","Massachusetts","TRUE","","3100","185.0","25001","Barnstable","{""25001"": 100}","Barnstable","25001","FALSE","FALSE","America/New_York"
"02657","42.06139","-70.19813","Provincetown","MA","Massachusetts","TRUE","","2972","118.7","25001","Barnstable","{""25001"": 100}","Barnstable","25001","FALSE","FALSE","America/New_York"
"02659","41.68258","-70.02234","South Chatham","MA","Massachusetts","TRUE","","992","193.2","25001","Barnstable","{""25001"": 100}","Barnstable","25001","FALSE","FALSE","America/New_York"
"02660","41.70828","-70.15517","South Dennis","MA","Massachusetts","TRUE","","6336","292.2","25001","Barnstable","{""25001"": 100}","Barnstable","25001","FALSE","FALSE","America/New_York"
"02663","41.90576","-69.989","South Wellfleet","MA","Massachusetts","TRUE","","106","14.3","25001","Barnstable","{""25001"": 100}","Barnstable","25001","FALSE","FALSE","America/New_York"
"02664","41.67486","-70.19446","South Yarmouth","MA","Massachusetts","TRUE","","8565","473.5","25001","Barnstable","{""25001"": 100}","Barnstable","25001","FALSE","FALSE","America/New_York"
"02666","41.98817","-70.04603","Truro","MA","Massachusetts","TRUE","","366","11.3","25001","Barnstable","{""25001"": 100}","Barnstable","25001","FALSE","FALSE","America/New_York"
"02667","41.92937","-70.02074","Wellfleet","MA","Massachusetts","TRUE","","3556","81.1","25001","Barnstable","{""25001"": 100}","Barnstable","25001","FALSE","FALSE","America/New_York"
"02668","41.70713","-70.36246","West Barnstable","MA","Massachusetts","TRUE","","2696","72.7","25001","Barnstable","{""25001"": 100}","Barnstable","25001","FALSE","FALSE","America/New_York"
"02670","41.66","-70.17098","West Dennis","MA","Massachusetts","TRUE","","1190","216.3","25001","Barnstable","{""25001"": 100}","Barnstable","25001","FALSE","FALSE","America/New_York"
"02671","41.66938","-70.11087","West Harwich","MA","Massachusetts","TRUE","","940","209.3","25001","Barnstable","{""25001"": 100}","Barnstable","25001","FALSE","FALSE","America/New_York"
"02672","41.6357","-70.31878","West Hyannisport","MA","Massachusetts","TRUE","","261","204.1","25001","Barnstable","{""25001"": 100}","Barnstable","25001","FALSE","FALSE","America/New_York"
"02673","41.6557","-70.24447","West Yarmouth","MA","Massachusetts","TRUE","","8875","369.6","25001","Barnstable","{""25001"": 100}","Barnstable","25001","FALSE","FALSE","America/New_York"
"02675","41.70401","-70.22883","Yarmouth Port","MA","Massachusetts","TRUE","","6392","281.6","25001","Barnstable","{""25001"": 100}","Barnstable","25001","FALSE","FALSE","America/New_York"
"02702","41.78452","-71.06112","Assonet","MA","Massachusetts","TRUE","","4450","102.3","25005","Bristol","{""25005"": 100}","Bristol","25005","FALSE","FALSE","America/New_York"
"02703","41.93108","-71.29499","Attleboro","MA","Massachusetts","TRUE","","45023","649.5","25005","Bristol","{""25005"": 100}","Bristol","25005","FALSE","FALSE","America/New_York"
"02713","41.42818","-70.89102","Cuttyhunk","MA","Massachusetts","TRUE","","37","4.0","25007","Dukes","{""25007"": 100}","Dukes","25007","FALSE","FALSE","America/New_York"
"02715","41.81681","-71.15064","Dighton","MA","Massachusetts","TRUE","","3934","135.9","25005","Bristol","{""25005"": 100}","Bristol","25005","FALSE","FALSE","America/New_York"
"02717","41.75405","-70.98312","East Freetown","MA","Massachusetts","TRUE","","4914","85.5","25005","Bristol","{""25005"": 100}","Bristol","25005","FALSE","FALSE","America/New_York"
"02718","41.86902","-71.01128","East Taunton","MA","Massachusetts","TRUE","","6748","253.2","25005","Bristol","{""25005"": 100}","Bristol","25005","FALSE","FALSE","America/New_York"
"02719","41.63945","-70.87322","Fairhaven","MA","Massachusetts","TRUE","","16072","501.1","25005","Bristol","{""25005"": 100}","Bristol","25005","FALSE","FALSE","America/New_York"
"02720","41.73095","-71.10932","Fall River","MA","Massachusetts","TRUE","","30579","895.6","25005","Bristol","{""25005"": 100}","Bristol","25005","FALSE","FALSE","America/New_York"
"02721","41.67451","-71.14869","Fall River","MA","Massachusetts","TRUE","","25826","2478.6","25005","Bristol","{""25005"": 100}","Bristol","25005","FALSE","FALSE","America/New_York"
"02723","41.69237","-71.1309","Fall River","MA","Massachusetts","TRUE","","15340","3714.1","25005","Bristol","{""25005"": 100}","Bristol","25005","FALSE","FALSE","America/New_York"
"02724","41.68372","-71.17949","Fall River","MA","Massachusetts","TRUE","","17506","3752.9","25005","Bristol","{""25005"": 100}","Bristol","25005","FALSE","FALSE","America/New_York"
"02725","41.71253","-71.18426","Somerset","MA","Massachusetts","TRUE","","2647","430.6","25005","Bristol","{""25005"": 100}","Bristol","25005","FALSE","FALSE","America/New_York"
"02726","41.76073","-71.14444","Somerset","MA","Massachusetts","TRUE","","15513","1083.8","25005","Bristol","{""25005"": 100}","Bristol","25005","FALSE","FALSE","America/New_York"
"02738","41.7092","-70.76362","Marion","MA","Massachusetts","TRUE","","5148","140.7","25023","Plymouth","{""25023"": 100}","Plymouth","25023","FALSE","FALSE","America/New_York"
"02739","41.6687","-70.81705","Mattapoisett","MA","Massachusetts","TRUE","","6374","142.0","25023","Plymouth","{""25023"": 100}","Plymouth","25023","FALSE","FALSE","America/New_York"
"02740","41.63802","-70.93839","New Bedford","MA","Massachusetts","TRUE","","43444","2918.5","25005","Bristol","{""25005"": 100}","Bristol","25005","FALSE","FALSE","America/New_York"
"02743","41.71323","-70.90054","Acushnet","MA","Massachusetts","TRUE","","10589","226.4","25005","Bristol","{""25005"": 100}","Bristol","25005","FALSE","FALSE","America/New_York"
"02744","41.60789","-70.91286","New Bedford","MA","Massachusetts","TRUE","","11695","3470.9","25005","Bristol","{""25005"": 100}","Bristol","25005","FALSE","FALSE","America/New_York"
"02745","41.70284","-70.94695","New Bedford","MA","Massachusetts","TRUE","","24836","976.5","25005","Bristol","{""25005"": 100}","Bristol","25005","FALSE","FALSE","America/New_York"
"02746","41.66474","-70.945","New Bedford","MA","Massachusetts","TRUE","","15283","2071.2","25005","Bristol","{""25005"": 100}","Bristol","25005","FALSE","FALSE","America/New_York"
"02747","41.6577","-71.01202","North Dartmouth","MA","Massachusetts","TRUE","","23051","217.1","25005","Bristol","{""25005"": 100}","Bristol","25005","FALSE","FALSE","America/New_York"
"02748","41.56096","-70.97963","South Dartmouth","MA","Massachusetts","TRUE","","11212","186.5","25005","Bristol","{""25005"": 100}","Bristol","25005","FALSE","FALSE","America/New_York"
"02760","41.97004","-71.33586","North Attleboro","MA","Massachusetts","TRUE","","27615","593.7","25005","Bristol","{""25005"": 100}","Bristol","25005","FALSE","FALSE","America/New_York"
"02762","42.01409","-71.33642","Plainville","MA","Massachusetts","TRUE","","9227","324.2","25021","Norfolk","{""25021"": 100}","Norfolk","25021","FALSE","FALSE","America/New_York"
"02763","41.96666","-71.30743","Attleboro Falls","MA","Massachusetts","TRUE","","1666","717.1","25005","Bristol","{""25005"": 100}","Bristol","25005","FALSE","FALSE","America/New_York"
"02764","41.8562","-71.16022","North Dighton","MA","Massachusetts","TRUE","","3911","138.5","25005","Bristol","{""25005"": 100}","Bristol","25005","FALSE","FALSE","America/New_York"
"02766","41.96402","-71.18418","Norton","MA","Massachusetts","TRUE","","19874","275.7","25005","Bristol","{""25005"": 100}","Bristol","25005","FALSE","FALSE","America/New_York"
"02767","41.93939","-71.05191","Raynham","MA","Massachusetts","TRUE","","14626","228.2","25005","Bristol","{""25005"": 100}","Bristol","25005","FALSE","FALSE","America/New_York"
"02769","41.84394","-71.24559","Rehoboth","MA","Massachusetts","TRUE","","12285","101.1","25005","Bristol","{""25005"": 100}","Bristol","25005","FALSE","FALSE","America/New_York"
"02770","41.75875","-70.84048","Rochester","MA","Massachusetts","TRUE","","5461","65.2","25023","Plymouth","{""25023"": 100}","Plymouth","25023","FALSE","FALSE","America/New_York"
"02771","41.83787","-71.31736","Seekonk","MA","Massachusetts","TRUE","","15613","327.8","25005","Bristol","{""25005"": 100}","Bristol","25005","FALSE","FALSE","America/New_York"
"02777","41.75699","-71.21208","Swansea","MA","Massachusetts","TRUE","","16692","284.7","25005","Bristol","{""25005"": 100}","Bristol","25005","FALSE","FALSE","America/New_York"
"02779","41.83492","-71.07543","Berkley","MA","Massachusetts","TRUE","","6801","159.0","25005","Bristol","{""25005"": 100}","Bristol","25005","FALSE","FALSE","America/New_York"
"02780","41.90743","-71.11939","Taunton","MA","Massachusetts","TRUE","","50299","586.3","25005","Bristol","{""25005"": 100}","Bristol","25005","FALSE","FALSE","America/New_York"
"02790","41.59967","-71.08266","Westport","MA","Massachusetts","TRUE","","15879","113.8","25005","Bristol","{""25005"": 100}","Bristol","25005","FALSE","FALSE","America/New_York"
"02791","41.52262","-71.08266","Westport Point","MA","Massachusetts","TRUE","","373","110.5","25005","Bristol","{""25005"": 100}","Bristol","25005","FALSE","FALSE","America/New_York"
"02802","41.95221","-71.4559","Albion","RI","Rhode Island","TRUE","","501","1000.3","44007","Providence","{""44007"": 100}","Providence","44007","FALSE","FALSE","America/New_York"
"02804","41.43546","-71.77196","Ashaway","RI","Rhode Island","TRUE","","2005","65.7","44009","Washington","{""44009"": 100}","Washington","44009","FALSE","FALSE","America/New_York"
"02806","41.7443","-71.31453","Barrington","RI","Rhode Island","TRUE","","16106","759.8","44001","Bristol","{""44001"": 100}","Bristol","44001","FALSE","FALSE","America/New_York"
"02807","41.17762","-71.57854","Block Island","RI","Rhode Island","TRUE","","871","37.0","44009","Washington","{""44009"": 100}","Washington","44009","FALSE","FALSE","America/New_York"
"02808","41.40606","-71.74802","Bradford","RI","Rhode Island","TRUE","","2466","125.5","44009","Washington","{""44009"": 100}","Washington","44009","FALSE","FALSE","America/New_York"
"02809","41.68266","-71.26938","Bristol","RI","Rhode Island","TRUE","","22095","871.5","44001","Bristol","{""44001"": 100}","Bristol","44001","FALSE","FALSE","America/New_York"
"02812","41.47625","-71.66094","Carolina","RI","Rhode Island","TRUE","","1300","125.7","44009","Washington","{""44009"": 100}","Washington","44009","FALSE","FALSE","America/New_York"
"02813","41.3971","-71.67003","Charlestown","RI","Rhode Island","TRUE","","7832","82.4","44009","Washington","{""44009"": 100}","Washington","44009","FALSE","FALSE","America/New_York"
"02814","41.89959","-71.69888","Chepachet","RI","Rhode Island","TRUE","","8033","71.5","44007","Providence","{""44007"": 100}","Providence","44007","FALSE","FALSE","America/New_York"
"02815","41.77723","-71.66177","Clayville","RI","Rhode Island","TRUE","","150","21.3","44007","Providence","{""44007"": 100}","Providence","44007","FALSE","FALSE","America/New_York"
"02816","41.69035","-71.61954","Coventry","RI","Rhode Island","TRUE","","32683","341.6","44003","Kent","{""44003"": 100}","Kent","44003","FALSE","FALSE","America/New_York"
"02817","41.6291","-71.66711","West Greenwich","RI","Rhode Island","TRUE","","6297","48.3","44003","Kent","{""44003"": 99.69, ""44009"": 0.31}","Kent|Washington","44003|44009","FALSE","FALSE","America/New_York"
"02818","41.64214","-71.49307","East Greenwich","RI","Rhode Island","TRUE","","18790","341.8","44003","Kent","{""44003"": 100}","Kent","44003","FALSE","FALSE","America/New_York"
"02822","41.56736","-71.63348","Exeter","RI","Rhode Island","TRUE","","6018","42.8","44009","Washington","{""44009"": 100}","Washington","44009","FALSE","FALSE","America/New_York"
"02823","41.73328","-71.54479","Fiskeville","RI","Rhode Island","TRUE","","","","44007","Providence","{""44007"": 99.83, ""44003"": 0.17}","Providence|Kent","44007|44003","FALSE","FALSE","America/New_York"
"02824","41.99934","-71.56322","Forestdale","RI","Rhode Island","TRUE","","","","44007","Providence","{""44007"": 100}","Providence","44007","FALSE","FALSE","America/New_York"
"02825","41.78212","-71.72596","Foster","RI","Rhode Island","TRUE","","5964","41.8","44007","Providence","{""44007"": 100}","Providence","44007","FALSE","FALSE","America/New_York"
"02826","41.98248","-71.64539","Glendale","RI","Rhode Island","TRUE","","382","60.6","44007","Providence","{""44007"": 100}","Providence","44007","FALSE","FALSE","America/New_York"
"02827","41.69792","-71.73847","Greene","RI","Rhode Island","TRUE","","2194","39.5","44003","Kent","{""44003"": 100}","Kent","44003","FALSE","FALSE","America/New_York"
"02828","41.87672","-71.56065","Greenville","RI","Rhode Island","TRUE","","7528","668.8","44007","Providence","{""44007"": 100}","Providence","44007","FALSE","FALSE","America/New_York"
"02829","41.89377","-71.59129","Harmony","RI","Rhode Island","TRUE","","","","44007","Providence","{""44007"": 100}","Providence","44007","FALSE","FALSE","America/New_York"
"02830","41.98016","-71.6484","Harrisville","RI","Rhode Island","TRUE","","5624","106.4","44007","Providence","{""44007"": 100}","Providence","44007","FALSE","FALSE","America/New_York"
"02831","41.74461","-71.58442","Hope","RI","Rhode Island","TRUE","","3725","133.8","44007","Providence","{""44007"": 93.75, ""44003"": 6.25}","Providence|Kent","44007|44003","FALSE","FALSE","America/New_York"
"02832","41.50469","-71.72807","Hope Valley","RI","Rhode Island","TRUE","","4713","73.4","44009","Washington","{""44009"": 100}","Washington","44009","FALSE","FALSE","America/New_York"
"04611","44.48771","-67.59633","Beals","ME","Maine","TRUE","","414","28.5","23029","Washington","{""23029"": 100}","Washington","23029","FALSE","FALSE","America/New_York"
"04612","44.25954","-68.37722","Bernard","ME","Maine","TRUE","","572","52.6","23009","Hancock","{""23009"": 100}","Hancock","23009","FALSE","FALSE","America/New_York"
"04613","44.37498","-68.03593","Birch Harbor","ME","Maine","TRUE","","123","31.7","23009","Hancock","{""23009"": 100}","Hancock","23009","FALSE","FALSE","America/New_York"
"04614","44.41819","-68.58223","Blue Hill","ME","Maine","TRUE","","2663","16.5","23009","Hancock","{""23009"": 100}","Hancock","23009","FALSE","FALSE","America/New_York"
"04616","44.28346","-68.57069","Brooklin","ME","Maine","TRUE","","677","14.6","23009","Hancock","{""23009"": 100}","Hancock","23009","FALSE","FALSE","America/New_York"
"04617","44.36929","-68.73081","Brooksville","ME","Maine","TRUE","","781","13.5","23009","Hancock","{""23009"": 100}","Hancock","23009","FALSE","FALSE","America/New_York"
"04619","45.13397","-67.22401","Calais","ME","Maine","TRUE","","3011","33.9","23029","Washington","{""23029"": 100}","Washington","23029","FALSE","FALSE","America/New_York"
"04622","44.75555","-67.95143","Cherryfield","ME","Maine","TRUE","","921","1.1","23029","Washington","{""23029"": 76.22, ""23009"": 23.78}","Washington|Hancock","23029|23009","FALSE","FALSE","America/New_York"
"04623","44.70786","-67.70824","Columbia Falls","ME","Maine","TRUE","","1011","3.3","23029","Washington","{""23029"": 100}","Washington","23029","FALSE","FALSE","America/New_York"
"04624","44.42438","-67.9877","Corea","ME","Maine","TRUE","","191","12.6","23009","Hancock","{""23009"": 100}","Hancock","23009","FALSE","FALSE","America/New_York"
"04625","44.25041","-68.25503","Cranberry Isles","ME","Maine","TRUE","","49","7.9","23009","Hancock","{""23009"": 100}","Hancock","23009","FALSE","FALSE","America/New_York"
"04626","44.68494","-67.22169","Cutler","ME","Maine","TRUE","","609","5.0","23029","Washington","{""23029"": 100}","Washington","23029","FALSE","FALSE","America/New_York"
"04627","44.22275","-68.66581","Deer Isle","ME","Maine","TRUE","","1640","24.4","23009","Hancock","{""23009"": 100}","Hancock","23009","FALSE","FALSE","America/New_York"
"04628","44.87275","-67.28238","Dennysville","ME","Maine","TRUE","","565","2.1","23029","Washington","{""23029"": 100}","Washington","23029","FALSE","FALSE","America/New_York"
"04630","44.8471","-67.47287","East Machias","ME","Maine","TRUE","","1338","5.8","23029","Washington","{""23029"": 100}","Washington","23029","FALSE","FALSE","America/New_York"
"04631","44.91373","-67.01834","Eastport","ME","Maine","TRUE","","1300","138.1","23029","Washington","{""23029"": 100}","Washington","23029","FALSE","FALSE","America/New_York"
"04634","44.63457","-68.22253","Franklin","ME","Maine","TRUE","","1946","8.0","23009","Hancock","{""23009"": 100}","Hancock","23009","FALSE","FALSE","America/New_York"
"04635","44.11376","-68.35479","Frenchboro","ME","Maine","TRUE","","10","1.6","23009","Hancock","{""23009"": 100}","Hancock","23009","FALSE","FALSE","America/New_York"
"04640","44.53803","-68.30573","Hancock","ME","Maine","TRUE","","2038","26.8","23009","Hancock","{""23009"": 100}","Hancock","23009","FALSE","FALSE","America/New_York"
"04642","44.33906","-68.79591","Harborside","ME","Maine","TRUE","","108","4.9","23009","Hancock","{""23009"": 100}","Hancock","23009","FALSE","FALSE","America/New_York"
"04643","44.57876","-67.80562","Harrington","ME","Maine","TRUE","","954","17.4","23029","Washington","{""23029"": 100}","Washington","23029","FALSE","FALSE","America/New_York"
"04645","44.05408","-68.6282","Isle Au Haut","ME","Maine","TRUE","","27","0.8","23013","Knox","{""23013"": 100}","Knox","23013","FALSE","FALSE","America/New_York"
"04646","44.26007","-68.22812","Islesford","ME","Maine","TRUE","","67","32.8","23009","Hancock","{""23009"": 100}","Hancock","23009","FALSE","FALSE","America/New_York"
"04648","44.65899","-67.59585","Jonesboro","ME","Maine","TRUE","","723","9.4","23029","Washington","{""23029"": 100}","Washington","23029","FALSE","FALSE","America/New_York"
"04649","44.56606","-67.5817","Jonesport","ME","Maine","TRUE","","1162","15.7","23029","Washington","{""23029"": 100}","Washington","23029","FALSE","FALSE","America/New_York"
"04650","44.28924","-68.71412","Little Deer Isle","ME","Maine","TRUE","","380","43.2","23009","Hancock","{""23009"": 100}","Hancock","23009","FALSE","FALSE","America/New_York"
"04652","44.82234","-67.07457","Lubec","ME","Maine","TRUE","","1584","10.0","23029","Washington","{""23029"": 100}","Washington","23029","FALSE","FALSE","America/New_York"
"04653","44.23705","-68.3431","Bass Harbor","ME","Maine","TRUE","","573","62.3","23009","Hancock","{""23009"": 100}","Hancock","23009","FALSE","FALSE","America/New_York"
"04654","44.78128","-67.57716","Machias","ME","Maine","TRUE","","3359","10.7","23029","Washington","{""23029"": 100}","Washington","23029","FALSE","FALSE","America/New_York"
"04655","44.66467","-67.39318","Machiasport","ME","Maine","TRUE","","1008","18.2","23029","Washington","{""23029"": 100}","Washington","23029","FALSE","FALSE","America/New_York"
"04657","44.97624","-67.41965","Meddybemps","ME","Maine","TRUE","","339","1.7","23029","Washington","{""23029"": 100}","Washington","23029","FALSE","FALSE","America/New_York"
